DBN,schoolName,type,totalGC&SW,totalGC,totalSW,fulltime_GC,fulltime_SW,parttime_GC,parttime_SW,bilingual_GC,bilingual_SW,GC_ServeLocMoreThanOne,SW_ServeLocMoreThanOne,SY19-20Enrollment,enrollmentRatioTotal,enrollmentratio_GC,enrollmentratio_SW,ATS_CODE,BORO,BORONUM,LOC_CODE,SCHOOLNAME,SCH_TYPE,MANAGED_BY,GEO_DISTRI,ADMIN_DIST,ADDRESS,STATE_CODE,ZIP,PRINCIPAL,PRIN_PH,FAX,GRADES,City,fullAddress,gcode,latitude,longitude
01M034,P.S. 034 Franklin D. Roosevelt,K-8,2.0,2.0,0.0,2,0,0.0,0.0,0.0,0,0.0,0.0,296,148,148,296,01M034,M,1.0,M034,P.S. 034 FRANKLIN D. ROOSEVELT,K-8,1.0,1.0,1.0,730 EAST  12 STREET,NY,10009,JOYCE STALLINGS HARTE,212-228-4433,212-353-1973,"PK,0K,01,02,03,04,05,06,07,08,SE",MANHATTAN,"730 EAST  12 STREET, NY, 10009","730 E 12th St, New York, NY 10009, USA",40.7261446,-73.9750657
01M140,P.S. 140 Nathan Straus,K-8,1.4,1.4,0.0,1,0,0.4,0.0,0.0,0,0.4,0.0,372,266,266,372,01M140,M,1.0,M140,P.S. 140 NATHAN STRAUS,K-8,1.0,1.0,1.0,123 RIDGE STREET,NY,10002,ESTEBAN BARRIENTOS,212-677-4680,212-677-3907,"PK,0K,01,02,03,04,05,06,07,08,SE",MANHATTAN,"123 RIDGE STREET, NY, 10002","123 Ridge St, New York, NY 10002, USA",40.7191282,-73.9832826
01M184,P.S. 184m Shuang Wen,K-8,2.0,2.0,0.0,2,0,0.0,0.0,0.0,0,0.0,0.0,707,354,354,707,01M184,M,1.0,M184,P.S. 184M SHUANG WEN,K-8,1.0,1.0,1.0,327 CHERRY STREET,NY,10002,LING LING CHOU,212-602-9700,212-602-9710,"PK,0K,01,02,03,04,05,06,07,08,SE",MANHATTAN,"327 CHERRY STREET, NY, 10002","327 Cherry St, New York, NY 10002, USA",40.7114447,-73.98548939999999
01M292,Orchard Collegiate Academy,HIGH SCHOOL,In progress (interviewing),0.0,0.0,0,0,0.0,0.0,0.0,0,0.0,0.0,226,see note in column D,see note in column D,see note in column D,01M292,M,1.0,M292,HENRY STREET SCHOOL FOR INTERNATIONAL STUDIES,Secondary School,1.0,1.0,1.0,220 HENRY STREET,NY,10002,Erin Balet,212-406-9411,212-406-9417,"06,07,08,09,10,11,12,SE",MANHATTAN,"220 HENRY STREET, NY, 10002","220 Henry St, New York, NY 10002, USA",40.7134455,-73.9860332
01M315,The East Village Community School,ELEMENTARY,1.4,1.0,0.4,1,0,0.0,0.4,0.0,0,0.0,0.4,330,236,330,330,01M315,M,1.0,M315,THE EAST VILLAGE COMMUNITY SCHOOL,Elementary,1.0,1.0,1.0,610 EAST  12 STREET,NY,10009,ROBIN WILLIAMS,212-982-0682,212-260-4012,"PK,0K,01,02,03,04,05,SE",MANHATTAN,"610 EAST  12 STREET, NY, 10009","610 E 12th St, New York, NY 10009, USA",40.7277257,-73.9783818
01M364,Earth School,ELEMENTARY,1.0,1.0,0.0,1,0,0.0,0.0,0.0,0,0.0,0.0,344,344,344,344,01M364,M,1.0,M364,EARTH SCHOOL,Elementary,1.0,1.0,1.0,600 EAST  6 STREET,NY,10009,ALISON GAIL HAZUT,212-477-1735,212-477-2396,"PK,0K,01,02,03,04,05,SE",MANHATTAN,"600 EAST  6 STREET, NY, 10009","600 E 6th St, New York, NY 10009, USA",40.7238456,-73.9817633
01M378,School for Global Leaders,JUNIOR HIGH-INTERMEDIATE-MIDDLE,1.2,1.0,0.2,1,0,0.0,0.2,0.0,0,0.0,0.2,204,170,204,204,01M378,M,1.0,M378,SCHOOL FOR GLOBAL LEADERS,Junior High-Intermediate-Middle,1.0,1.0,1.0,145 STANTON STREET,NY,10002,CARRY CHAN,212-260-5375,212-260-7386,"06,07,08,SE",MANHATTAN,"145 STANTON STREET, NY, 10002","145 Stanton St, New York, NY 10002, USA",40.720088,-73.9860332
01M448,University Neighborhood High School,HIGH SCHOOL,3.0,3.0,0.0,3,0,0.0,0.0,0.0,0,0.0,0.0,492,164,164,492,01M448,M,1.0,M448,UNIVERSITY NEIGHBORHOOD HIGH SCHOOL,High school,1.0,1.0,1.0,200 MONROE STREET,NY,10002,Elizabeth Collins,212-962-4341,212-267-5611,"09,10,11,12,SE",MANHATTAN,"200 MONROE STREET, NY, 10002","200 Monroe St, New York, NY 10002, USA",40.7123543,-73.9840589
01M515,Lower East Side Preparatory High School,HIGH SCHOOL,3.0,3.0,0.0,3,0,0.0,0.0,1.0,0,0.0,0.0,531,177,177,531,01M515,M,1.0,M515,LOWER EAST SIDE PREPARATORY HIGH SCHOOL,High school,1.0,1.0,1.0,145 STANTON STREET,NY,10002,MARTHA POLIN,212-505-6366,212-260-0813,"10,11,12",MANHATTAN,"145 STANTON STREET, NY, 10002","145 Stanton St, New York, NY 10002, USA",40.720088,-73.9860332
01M539,"New Explorations into Science, Technology and Math",K-12 ALL GRADES,7.0,7.0,0.0,7,0,0.0,0.0,0.0,0,0.0,0.0,1806,258,258,1806,01M539,M,1.0,M539,"NEW EXPLORATIONS INTO SCIENCE, TECHNOLOGY AND MATH",K-12 all grades,1.0,1.0,1.0,111 COLUMBIA STREET,NY,10002,Dr. Olga Livanis,212-677-5190,212-260-8124,"0K,01,02,03,04,05,06,07,08,09,10,11,12",MANHATTAN,"111 COLUMBIA STREET, NY, 10002","111 Columbia St, New York, NY 10002, USA",40.7197829,-73.9792454
01M696,Bard High School Early College,HIGH SCHOOL,4.0,4.0,0.0,4,0,0.0,0.0,0.0,0,0.0,0.0,613,153,153,613,01M696,M,1.0,M696,BARD HIGH SCHOOL EARLY COLLEGE,High school,1.0,1.0,1.0,525 EAST HOUSTON STREET,NY,10002,Michael Lerner,212-995-8479,212-777-4702,"09,10,11,12",MANHATTAN,"525 EAST HOUSTON STREET, NY, 10002","525 E Houston St, New York, NY 10002, USA",40.7180919,-73.97607459999999
01M839,Tompkins Square Middle School,JUNIOR HIGH-INTERMEDIATE-MIDDLE,1.2,1.0,0.2,1,0,0.0,0.2,0.0,0,0.0,0.2,358,298,358,358,01M839,M,1.0,M839,TOMPKINS SQUARE MIDDLE SCHOOL,Junior High-Intermediate-Middle,1.0,1.0,1.0,600 EAST  6 STREET,NY,10009,SONHANDO ESTWICK,212-995-1430,212-979-1341,"06,07,08,SE",MANHATTAN,"600 EAST  6 STREET, NY, 10009","600 E 6th St, New York, NY 10009, USA",40.7238456,-73.9817633
02M002,P.S. 002 Meyer London,ELEMENTARY,1.0,1.0,0.0,1,0,0.0,0.0,0.0,0,0.0,0.0,449,449,449,449,02M002,M,1.0,M002,P.S. 002 MEYER LONDON,Elementary,1.0,2.0,2.0,122 HENRY STREET,NY,10002,BRETT GUSTAFSON,212-964-0350,212-608-4080,"PK,0K,01,02,03,04,05,SE",MANHATTAN,"122 HENRY STREET, NY, 10002","122 Henry St, New York, NY 10002, USA",40.713057,-73.9916866
02M114,East Side Middle School,JUNIOR HIGH-INTERMEDIATE-MIDDLE,1.0,1.0,0.0,1,0,0.0,0.0,0.0,0,0.0,0.0,457,457,457,457,02M114,M,1.0,M114,EAST SIDE MIDDLE SCHOOL,Junior High-Intermediate-Middle,1.0,2.0,2.0,331 EAST 91ST STREET,NY,10128,DAVID GETZ,212-360-0114,212-360-0121,"06,07,08,SE",NEW YORK,"331 EAST 91ST STREET, NY, 10128","331 E 91st St, New York, NY 10128, USA",40.7804173,-73.9475088
02M150,P.S. 150,ELEMENTARY,1.0,1.0,0.0,1,0,0.0,0.0,0.0,0,0.0,0.0,190,190,190,190,02M150,M,1.0,M150,P.S. 150,Elementary,1.0,2.0,2.0,334 GREENWICH STREET,NY,10013,Maggie Siena,212-732-4392,212-766-5895,"PK,0K,01,02,03,04,05",MANHATTAN,"334 GREENWICH STREET, NY, 10013","334 Greenwich St, New York, NY 10013, USA",40.7180827,-74.010942
02M212,P.S. 212 Midtown West,ELEMENTARY,0.4,0.4,0.0,0,0,0.4,0.0,0.0,0,0.4,0.0,370,370,370,370,02M212,M,1.0,M212,P.S. 212 MIDTOWN WEST,Elementary,1.0,2.0,2.0,328 WEST  48 STREET,NY,10036,DEAN KETCHUM,212-247-0208,212-757-4933,"0K,01,02,03,04,05,SE",MANHATTAN,"328 WEST  48 STREET, NY, 10036","328 W 48th St, New York, NY 10036, USA",40.761226,-73.9886092
02M217,P.S./I.S. 217 Roosevelt Island,K-8,1.6,1.6,0.0,1,0,0.6,0.0,0.0,0,0.6,0.0,640,400,400,640,02M217,M,1.0,M217,P.S./I.S. 217 ROOSEVELT ISLAND,K-8,1.0,2.0,2.0,645 MAIN STREET,NY,10044,MANDANA BECKMAN,212-980-0294,212-980-1192,"PK,0K,01,02,03,04,05,06,07,08,SE",MANHATTAN,"645 MAIN STREET, NY, 10044","645 Main St, New York, NY 10044, USA",40.764146,-73.9483885
02M225,Ella Baker School,K-8,1.0,1.0,0.0,1,0,0.0,0.0,0.0,0,0.0,0.0,332,332,332,332,02M225,M,1.0,M225,ELLA BAKER SCHOOL,K-8,1.0,2.0,2.0,317 EAST  67 STREET,NY,10065,LAURA GARCIA,212-717-8809,212-717-8807,"PK,0K,01,02,03,04,05,06,07,08",MANHATTAN,"317 EAST  67 STREET, NY, 10065","317 E 67th St, New York, NY 10065, USA",40.7653683,-73.9596962
02M260,The Clinton School,SECONDARY SCHOOL,4.0,4.0,0.0,4,0,0.0,0.0,1.0,0,0.0,0.0,776,194,194,776,02M260,M,1.0,M260,M.S. 260 CLINTON SCHOOL WRITERS & ARTISTS,Junior High-Intermediate-Middle,1.0,2.0,2.0,425 WEST 33RD STREET,NY,10001,JOSEPH ANDERSON,212-695-9114,212-695-9611,"06,07,08,SE",New York,"425 WEST 33RD STREET, NY, 10001","425 W 33rd St, New York, NY 10001, USA",40.7534006,-73.9979279
02M280,Manhattan Early College School for Advertising,HIGH SCHOOL,3.2,3.0,0.2,3,0,0.0,0.2,0.0,0,0.0,0.2,445,139,148,445,,,,,,,,,,,,,,,,,,"411 PEARL STREET, Manhattan, 10038","411 Pearl St, New York, NY 10038, USA",40.7110316,-74.0013216
02M288,Food and Finance High School,HIGH SCHOOL,3.0,3.0,0.0,3,0,0.0,0.0,0.0,0,0.0,0.0,379,126,126,379,02M288,M,1.0,M288,FOOD AND FINANCE HIGH SCHOOL,High school,1.0,2.0,2.0,525 WEST  50TH STREET,NY,10019,ROGER TURGEON,212-586-2943,212-586-4205,"09,10,11,12,SE",MANHATTAN,"525 WEST  50TH STREET, NY, 10019","525 W 50th St, New York, NY 10019, USA",40.76563840000001,-73.9931036
02M289,I.S. 289,JUNIOR HIGH-INTERMEDIATE-MIDDLE,1.0,1.0,0.0,1,0,0.0,0.0,0.0,0,0.0,0.0,276,276,276,276,02M289,M,1.0,M289,I.S. 289,Junior High-Intermediate-Middle,1.0,2.0,2.0,201 WARREN STREET,NY,10282,ELLEN FOOTE,212-571-9268,212-587-6610,"06,07,08,SE",MANHATTAN,"201 WARREN STREET, NY, 10282","201 Warren St, New York, NY 10282, USA",40.7169119,-74.01359699999999
02M297,M.S. 297,JUNIOR HIGH-INTERMEDIATE-MIDDLE,2.0,2.0,0.0,2,0,0.0,0.0,0.0,0,0.0,0.0,841,421,421,841,,,,,,,,,,,,,,,,,,"75 MORTON STREET, Manhattan, 10014","75 Morton St, New York, NY 10014, USA",40.731204,-74.0074039
02M308,Lower Manhattan Arts Academy,HIGH SCHOOL,2.0,2.0,0.0,2,0,0.0,0.0,0.0,0,0.0,0.0,314,157,157,314,02M308,M,1.0,M308,LOWER MANHATTAN ARTS ACADEMY,High school,1.0,2.0,2.0,350 GRAND STREET,NY,10002,JOHN WENK,212-505-0143,212-674-8021,"09,10,11,12,SE",MANHATTAN,"350 GRAND STREET, NY, 10002","350 Grand St, New York, NY 10002, USA",40.7173452,-73.9892929
02M312,New York City Lab Middle School for Collaborative,JUNIOR HIGH-INTERMEDIATE-MIDDLE,2.6,2.0,0.6,2,0,0.0,0.6,0.0,0,0.0,0.6,603,232,302,603,02M312,M,1.0,M312,NEW YORK CITY LAB MIDDLE SCHOOL FOR COLLABORATIVE,Junior High-Intermediate-Middle,1.0,2.0,2.0,333 WEST  17 STREET,NY,10011,MEGAN ADAMS,212-691-6119,212-691-6219,"06,07,08,SE",MANHATTAN,"333 WEST  17 STREET, NY, 10011","333 W 17th St, New York, NY 10011, USA",40.74250989999999,-74.0022418
02M316,"Urban Assembly School of Business for Young Women,",HIGH SCHOOL,1.0,1.0,0.0,1,0,0.0,0.0,0.0,0,0.0,0.0,178,178,178,178,02M316,M,1.0,M316,"URBAN ASSEMBLY SCHOOL OF BUSINESS FOR YOUNG WOMEN,",High school,1.0,2.0,2.0,26 BROADWAY,NY,10004,PATRICIA MINAYA,212-668-0169,212-668-0635,"09,10,11,12,SE",NEW YORK,"26 BROADWAY, NY, 10004","26 Broadway, New York, NY 10004, USA",40.7052022,-74.0131655
02M343,The Peck Slip School,ELEMENTARY,1.0,1.0,0.0,1,0,0.0,0.0,0.0,0,0.0,0.0,458,458,458,458,,,,,,,,,,,,,,,,,,"1 PECK SLIP, Manhattan, 10038","1 Peck Slip, New York, NY 10038, USA",40.7085785,-74.0018264
02M374,Gramercy Arts High School,HIGH SCHOOL,2.0,2.0,0.0,2,0,0.0,0.0,0.0,0,0.0,0.0,449,225,225,449,02M374,M,1.0,M374,GRAMERCY ARTS HIGH SCHOOL,High school,1.0,2.0,2.0,40 IRVING PLACE,NY,10003,DENISE DICARLO,212-253-7076,212-253-8095,"09,10,11,12,SE",NEW YORK,"40 IRVING PLACE, NY, 10003","40 Irving Pl, New York, NY 10003, USA",40.73518079999999,-73.9870892
02M376,NYC iSchool,HIGH SCHOOL,2.0,2.0,0.0,2,0,0.0,0.0,0.0,0,0.0,0.0,465,233,233,465,02M376,M,1.0,M376,NYCISCHOOL,High school,1.0,2.0,2.0,131 AVENUE OF THE AMERICAS,NY,10013,Alisa Berger,917-237-7300,212-219-0743,"09,10,11,SE",MANHATTAN,"131 AVENUE OF THE AMERICAS, NY, 10013","131 6th Ave, New York, NY 10013, USA",40.7246823,-74.0050859
02M392,Manhattan Business Academy,HIGH SCHOOL,2.0,2.0,0.0,2,0,0.0,0.0,0.0,0,0.0,0.0,406,203,203,406,02M392,M,1.0,M392,MANHATTAN BUSINESS ACADEMY,High school,1.0,2.0,2.0,351 WEST  18 STREET,NY,10011,KAREN POLSONETTI,212-647-1983,212-647-1989,"09,10,SE",MANHATTAN,"351 WEST  18 STREET, NY, 10011","351 W 18th St, New York, NY 10011, USA",40.7432281,-74.002426
02M394,Emma Lazarus High School,HIGH SCHOOL,2.0,2.0,0.0,2,0,0.0,0.0,1.0,0,0.0,0.0,307,154,154,307,02M394,M,1.0,M394,EMMA LAZARUS HIGH SCHOOL,High school,1.0,2.0,2.0,100 HESTER STREET,NY,10002,MELODY KELLOGG,212-925-5017,212-925-5920,"09,10,11,12",MANHATTAN,"100 HESTER STREET, NY, 10002","100 Hester St, New York, NY 10002, USA",40.7161943,-73.9933849
02M399,The High School For Language And Diplomacy,HIGH SCHOOL,2.0,2.0,0.0,2,0,0.0,0.0,1.0,0,0.0,0.0,274,137,137,274,02M399,M,1.0,M399,THE HIGH SCHOOL FOR LANGUAGE AND DIPLOMACY,High school,1.0,2.0,2.0,40 IRVING PLACE,NY,10003,SANTIAGO MAYOL,212-253-2480,212-253-2539,"09,10,SE",NEW YORK,"40 IRVING PLACE, NY, 10003","40 Irving Pl, New York, NY 10003, USA",40.73518079999999,-73.9870892
02M408,Professional Performing Arts High School,SECONDARY SCHOOL,1.0,1.0,0.0,1,0,0.0,0.0,0.0,0,0.0,0.0,577,577,577,577,02M408,M,1.0,M408,PROFESSIONAL PERFORMING ARTS HIGH SCHOOL,Secondary School,1.0,2.0,2.0,328 WEST  48 STREET,NY,10036,KEITH RYAN,212-247-8652,212-247-7514,"06,07,08,09,10,11,12",MANHATTAN,"328 WEST  48 STREET, NY, 10036","328 W 48th St, New York, NY 10036, USA",40.761226,-73.9886092
02M411,Baruch College Campus High School,HIGH SCHOOL,4.0,4.0,0.0,4,0,0.0,0.0,0.0,0,0.0,0.0,487,122,122,487,02M411,M,1.0,M411,BARUCH COLLEGE CAMPUS HIGH SCHOOL,High school,1.0,2.0,2.0,55 EAST  25 STREET,NY,10010,Alicia Perez-Katz,212-683-7440,212-683-7338,"09,10,11,12",MANHATTAN,"55 EAST  25 STREET, NY, 10010","55 E 25th St, New York, NY 10010, USA",40.741968,-73.98589919999999
02M412,N.Y.C. Lab School for Collaborative Studies,HIGH SCHOOL,2.6,2.6,0.0,2,0,0.6,0.0,0.0,0,0.0,0.0,514,198,198,514,02M412,M,1.0,M412,N.Y.C. LAB SCHOOL FOR COLLABORATIVE STUDIES,High school,1.0,2.0,2.0,333 WEST  17 STREET,NY,10011,BROOKE JACKSON,212-691-6119,212-691-2147,"09,10,11,12,SE",MANHATTAN,"333 WEST  17 STREET, NY, 10011","333 W 17th St, New York, NY 10011, USA",40.74250989999999,-74.0022418
02M414,N.Y.C. Museum School,HIGH SCHOOL,2.0,2.0,0.0,2,0,0.0,0.0,0.0,0,0.0,0.0,454,227,227,454,02M414,M,1.0,M414,N.Y.C. MUSEUM SCHOOL,High school,1.0,2.0,2.0,333 WEST  17 STREET,NY,10011,DARLENE MILLER,212-675-6206,212-675-6524,"09,10,11,12,SE",MANHATTAN,"333 WEST  17 STREET, NY, 10011","333 W 17th St, New York, NY 10011, USA",40.74250989999999,-74.0022418
02M416,Eleanor Roosevelt High School,HIGH SCHOOL,3.0,3.0,0.0,3,0,0.0,0.0,0.0,0,0.0,0.0,541,180,180,541,02M416,M,1.0,M416,ELEANOR ROOSEVELT HIGH SCHOOL,High school,1.0,2.0,2.0,411 EAST 76 STREET,NY,10021,DIMITRI SALIANI,212-772-1220,212-772-1440,"09,10,11,12",MANHATTAN,"411 EAST 76 STREET, NY, 10021","411 E 76th St, New York, NY 10021, USA",40.7702849,-73.9532948
02M418,Millennium High School,HIGH SCHOOL,3.3,3.1,0.2,2,0,1.1,0.2,0.0,0,0.0,0.2,674,204,217,674,02M418,M,1.0,M418,MILLENNIUM HIGH SCHOOL,High school,1.0,2.0,2.0,75 BROAD STREET,NY,10004,ROBERT RHODES,212-825-9008,212-825-9095,"09,10,11,12,SE",MANHATTAN,"75 BROAD STREET, NY, 10004","75 Broad St, New York, NY 10004, USA",40.70473,-74.0114523
02M419,Landmark High School,HIGH SCHOOL,2.2,2.0,0.2,2,0,0.0,0.2,1.0,0,0.0,0.2,335,155,168,335,02M419,M,1.0,M419,LANDMARK HIGH SCHOOL,High school,1.0,2.0,2.0,351 WEST  18 STREET,NY,10011,TREVOR NAIDOO,212-647-7410,212-647-7416,"09,10,11,12,SE",MANHATTAN,"351 WEST  18 STREET, NY, 10011","351 W 18th St, New York, NY 10011, USA",40.7432281,-74.002426
02M420,High School for Health Professions and Human Servi,HIGH SCHOOL,7.8,7.0,0.8,7,0,0.0,0.8,1.0,0,0.0,0.0,1822,234,260,1822,02M420,M,1.0,M420,HIGH SCHOOL FOR HEALTH PROFESSIONS AND HUMAN SERVI,High school,1.0,2.0,2.0,345 EAST  15TH STREET,NY,10003,ROBERT GENTILE,212-780-9175,212-979-7261,"09,10,11,12,SE",MANHATTAN,"345 EAST  15TH STREET, NY, 10003","345 E 15th St, New York, NY 10003, USA",40.732689,-73.98258969999999
02M425,Leadership and Public Service High School,HIGH SCHOOL,2.0,2.0,0.0,2,0,0.0,0.0,0.0,0,0.0,0.0,361,181,181,361,02M425,M,1.0,M425,LEADERSHIP AND PUBLIC SERVICE HIGH SCHOOL,High school,1.0,2.0,2.0,90 TRINITY PLACE,NY,10006,LAWRENCE PENDERGAST,212-346-0007,212-346-0612,"09,10,11,12,SE",MANHATTAN,"90 TRINITY PLACE, NY, 10006","90 Trinity Pl, New York, NY 10006, USA",40.708961,-74.01243099999999
02M427,Manhattan Academy For Arts & Language,HIGH SCHOOL,2.0,2.0,0.0,2,0,0.0,0.0,0.0,0,0.0,0.0,210,105,105,210,02M427,M,1.0,M427,MANHATTAN ACADEMY FOR ARTS & LANGUAGE,High school,1.0,2.0,2.0,111 EAST  33 STREET,NY,10016,Siv Boletsis,718 935-4087,TBD,"09,SE",MANHATTAN,"111 EAST  33 STREET, NY, 10016","111 E 33rd St, New York, NY 10016, USA",40.7463061,-73.9811402
02M439,Manhattan Village Academy,HIGH SCHOOL,1.0,1.0,0.0,1,0,0.0,0.0,0.0,0,0.0,0.0,460,460,460,460,02M439,M,1.0,M439,MANHATTAN VILLAGE ACADEMY,High school,1.0,2.0,2.0,43 WEST  22 STREET,NY,10010,HECTOR GEAGER,212-242-8752,212-242-7630,"09,10,11,12,SE",MANHATTAN,"43 WEST  22 STREET, NY, 10010","43 W 22nd St, New York, NY 10010, USA",40.7419328,-73.9922313
02M442,"Ballet Tech, NYC Public School for Dance",K-8,1.0,1.0,0.0,1,0,0.0,0.0,0.0,0,0.0,0.0,141,141,141,141,02M442,M,1.0,M442,"BALLET TECH, NYC PUBLIC SCHOOL FOR DANCE",K-12 all grades,1.0,2.0,2.0,890 BROADWAY,NY,10003,ROY ONEILL,212-254-1803,212-477-5048,"04,05,06,07,08",MANHATTAN,"890 BROADWAY, NY, 10003","890 Broadway, New York, NY 10003, USA",40.7385507,-73.9895743
02M489,High School of Economics and Finance,HIGH SCHOOL,3.0,3.0,0.0,3,0,0.0,0.0,1.0,0,0.0,0.0,738,246,246,738,02M489,M,1.0,M489,HIGH SCHOOL OF ECONOMICS AND FINANCE,High school,1.0,2.0,2.0,100 TRINITY PLACE,NY,10006,MICHAEL  STANZIONE,212-346-0708,212-346-0712,"09,10,11,12,SE",MANHATTAN,"100 TRINITY PLACE, NY, 10006","100 Trinity Pl, New York, NY 10006, USA",40.70925709999999,-74.0123392
02M500,Unity Center for Urban Technologies,HIGH SCHOOL,1.0,1.0,0.0,1,0,0.0,0.0,0.0,0,0.0,0.0,267,267,267,267,02M500,M,1.0,M500,UNITY CENTER FOR URBAN TECHNOLOGIES,High school,1.0,2.0,2.0,111 EAST  33 STREET,NY,10016,FAUSTO DE LA ROSA,212-343-8038,212-343-8044,"09,10,11,12,SE",MANHATTAN,"111 EAST  33 STREET, NY, 10016","111 E 33rd St, New York, NY 10016, USA",40.7463061,-73.9811402
02M527,P.S. 527 - East Side School for Social Action,ELEMENTARY,1.0,1.0,0.0,1,0,0.0,0.0,0.0,0,0.0,0.0,480,480,480,480,,,,,,,,,,,,,,,,,,"323 EAST 91 STREET, Manhattan, 10128","323 E 91st St, New York, NY 10128, USA",40.7805758,-73.94794499999999
02M533,Union Square Academy for Health Sciences,HIGH SCHOOL,2.0,2.0,0.0,2,0,0.0,0.0,0.0,0,0.0,0.0,404,202,202,404,,,,,,,,,,,,,,,,,,"40 IRVING PLACE, Manhattan, 10003","40 Irving Pl, New York, NY 10003, USA",40.73518079999999,-73.9870892
02M542,Manhattan Bridges High School,HIGH SCHOOL,3.2,3.0,0.2,3,0,0.0,0.2,2.0,0,0.0,0.2,520,162,173,520,02M542,M,1.0,M542,MANHATTAN BRIDGES HIGH SCHOOL,High school,1.0,2.0,2.0,525 WEST  50TH STREET,NY,10019,MIRZA SANCHEZ MEDINA,212-757-5274,212-757-5411,"09,10,11,12,SE",MANHATTAN,"525 WEST  50TH STREET, NY, 10019","525 W 50th St, New York, NY 10019, USA",40.76563840000001,-73.9931036
02M545,High School for Dual Language and Asian Studies,HIGH SCHOOL,2.0,2.0,0.0,2,0,0.0,0.0,1.0,0,0.0,0.0,396,198,198,396,02M545,M,1.0,M545,HIGH SCHOOL FOR DUAL LANGUAGE AND ASIAN STUDIES,High school,1.0,2.0,2.0,350 GRAND STREET,NY,10002,LI YAN,212-475-4097,212-674-1392,"09,10,11,12",MANHATTAN,"350 GRAND STREET, NY, 10002","350 Grand St, New York, NY 10002, USA",40.7173452,-73.9892929
02M565,Urban Academy Laboratory High School,HIGH SCHOOL,1.0,1.0,0.0,1,0,0.0,0.0,0.0,0,0.0,0.0,137,137,137,137,02M565,M,1.0,M565,URBAN ACADEMY LABORATORY HIGH SCHOOL,High school,1.0,2.0,2.0,317 EAST  67 STREET,NY,10065,Herb Mack,212-570-5284,212-570-5366,"09,10,11,12",MANHATTAN,"317 EAST  67 STREET, NY, 10065","317 E 67th St, New York, NY 10065, USA",40.7653683,-73.9596962
02M575,Manhattan Comprehensive Night and Day High School,HIGH SCHOOL,4.0,4.0,0.0,4,0,0.0,0.0,0.0,0,0.0,0.0,704,176,176,704,02M575,M,1.0,M575,MANHATTAN COMPREHENSIVE NIGHT AND DAY HIGH SCHOOL,High school,1.0,2.0,2.0,240 2 AVENUE,NY,10003,MICHAEL TOISE,212-353-2010,212-353-1673,"10,11,12,SE",MANHATTAN,"240 2 AVENUE, NY, 10003","240 2nd Ave, New York, NY 10003, USA",40.7326568,-73.9844033
02M600,The High School of Fashion Industries,HIGH SCHOOL,8.0,8.0,0.0,8,0,0.0,0.0,1.0,0,0.0,0.0,1589,199,199,1589,02M600,M,1.0,M600,"HIGH SCHOOL OF FASHION INDUSTRIES, THE",High school,1.0,2.0,2.0,225 WEST  24 STREET,NY,10011,Daryl Blank,212-255-1235,212-255-4756,"09,10,11,12,SE",MANHATTAN,"225 WEST  24 STREET, NY, 10011","225 W 24th St, New York, NY 10011, USA",40.7456692,-73.99650369999999
02M655,Life Sciences Secondary School,HIGH SCHOOL,3.0,3.0,0.0,3,0,0.0,0.0,1.0,0,0.0,0.0,394,131,131,394,02M655,M,1.0,M655,LIFE SCIENCES SECONDARY SCHOOL,Secondary School,1.0,2.0,2.0,320 EAST  96 STREET,NY,10128,GENEVIEVE STANISLAUS,212-348-1694,212-348-4293,"06,07,08,09,10,11,12,SE",MANHATTAN,"320 EAST  96 STREET, NY, 10128","320 E 96th St, New York, NY 10128, USA",40.7832167,-73.9460393
02M896,Lower Manhattan Community Middle School,JUNIOR HIGH-INTERMEDIATE-MIDDLE,1.0,1.0,0.0,1,0,0.0,0.0,0.0,0,0.0,0.0,378,378,378,378,02M896,M,1.0,M896,GREENWICH VILLAGE,Junior High-Intermediate-Middle,1.0,2.0,2.0,26 BROADWAY,NY,10004,KELLY MCGUIRE,646-826-8100,646-826-8101,"06,07,08,SE",NEW YORK,"26 BROADWAY, NY, 10004","26 Broadway, New York, NY 10004, USA",40.7052022,-74.0131655
02M933,City Knoll Middle School,JUNIOR HIGH-INTERMEDIATE-MIDDLE,1.0,1.0,0.0,1,0,0.0,0.0,0.0,0,0.0,0.0,154,154,154,154,,,,,,,,,,,,,,,,,,"440 WEST 53 STREET, Manhattan, 10019","440 W 53rd St, New York, NY 10019, USA",40.7660107,-73.9897148
03M054,J.H.S. 054 Booker T. Washington,JUNIOR HIGH-INTERMEDIATE-MIDDLE,3.3,3.0,0.3,3,0,0.0,0.3,0.0,0,0.0,0.3,825,254,275,825,03M054,M,1.0,M054,J.H.S. 054 BOOKER T. WASHINGTON,Junior High-Intermediate-Middle,1.0,3.0,3.0,103 WEST 107 STREET,NY,10025,ELANA ELSTER,212-678-2861,212-316-0883,"06,07,08,SE",MANHATTAN,"103 WEST 107 STREET, NY, 10025","103 W 107th St, New York, NY 10025, USA",40.8004677,-73.96266229999999
03M084,P.S. 084 Lillian Weber,ELEMENTARY,1.0,1.0,0.0,1,0,0.0,0.0,0.0,0,0.0,0.0,687,687,687,687,03M084,M,1.0,M084,P.S. 084 LILLIAN WEBER,Elementary,1.0,3.0,3.0,32 WEST  92 STREET,NY,10025,ROBIN SUNDICK,212-799-2534,212-501-9071,"PK,0K,01,02,03,04,05,SE",MANHATTAN,"32 WEST  92 STREET, NY, 10025","32 W 92nd St, New York, NY 10025, USA",40.7894371,-73.9680806
03M185,The Locke School of Arts and Engineering,ELEMENTARY,1.0,1.0,0.0,1,0,0.0,0.0,0.0,0,0.0,0.0,347,347,347,347,03M185,M,1.0,M185,P.S. 185 JOHN M. LANGSTON,Early Childhood,1.0,3.0,3.0,20 WEST 112 STREET,NY,10026,JANE MURPHY,212-534-7490,212-831-8613,"PK,0K,01,02,SE",MANHATTAN,"20 WEST 112 STREET, NY, 10026","20 W 112th St, New York, NY 10026, USA",40.7984949,-73.9498493
03M241,STEM Institute of Manhattan,ELEMENTARY,2.0,2.0,0.0,2,0,0.0,0.0,1.0,0,0.0,0.0,97,49,49,97,03M241,M,1.0,M241,P.S. 241 FAMILY ACADEMY,K-8,1.0,3.0,3.0,240 WEST 113 STREET,NY,10026,DIANA DIAZ,212-678-2898,212-678-2975,"0K,01,02,03,04,05,08,SE",MANHATTAN,"240 WEST 113 STREET, NY, 10026","240 W 113th St, New York, NY 10026, USA",40.8016724,-73.95540710000002
03M242,P.S. 242 - The Young Diplomats Magnet Academy,ELEMENTARY,2.0,2.0,0.0,2,0,0.0,0.0,0.0,0,0.0,0.0,140,70,70,140,03M242,M,1.0,M242,P.S. M242 -  GWENDOLYN POWELL BROWN COMPUTER SCHOO,Elementary,1.0,3.0,3.0,134 WEST 122 STREET,NY,10027,DENISE GOMEZ,212-678-2908,212-678-2927,"0K,01,02,03,04,05,SE",MANHATTAN,"134 WEST 122 STREET, NY, 10027","134 W 122nd St, New York, NY 10027, USA",40.8063157,-73.9487487
03M243,M.S. 243 Center School,JUNIOR HIGH-INTERMEDIATE-MIDDLE,1.0,0.4,0.6,0,0,0.4,0.6,0.0,0,0.0,0.2,247,247,247,247,03M243,M,1.0,M243,M.S. 243 CENTER SCHOOL,Junior High-Intermediate-Middle,1.0,3.0,3.0,100 WEST  84 STREET,NY,10024,ELAINE SCHWARTZ,212-799-1477,212-579-9728,"05,06,07,08,SE",MANHATTAN,"100 WEST  84 STREET, NY, 10024","100 W 84th St, New York, NY 10024, USA",40.7850907,-73.973866
03M245,M.S. M245 The Computer School,JUNIOR HIGH-INTERMEDIATE-MIDDLE,1.2,1.0,0.2,1,0,0.0,0.2,0.0,0,0.0,0.2,403,345,403,403,03M245,M,1.0,M245,M.S. M245 THE COMPUTER SCHOOL,Junior High-Intermediate-Middle,1.0,3.0,3.0,100 WEST  77 STREET,NY,10024,HENRY ZYMECK,917-441-0873,212-678-5908,"06,07,08,SE",MANHATTAN,"100 WEST  77 STREET, NY, 10024","100 W 77th St, New York, NY 10024, USA",40.7810978,-73.97809649999999
03M247,M.S. M247 Dual Language Middle School,JUNIOR HIGH-INTERMEDIATE-MIDDLE,1.2,1.0,0.2,1,0,0.0,0.2,0.0,0,0.0,0.2,231,198,231,231,03M247,M,1.0,M247,M.S. M247 DUAL LANGUAGE MIDDLE SCHOOL,Junior High-Intermediate-Middle,1.0,3.0,3.0,32 WEST  92 STREET,NY,10025,CLAUDIA AGUIRRE,212-799-2653,212-579-2407,"06,07,08,SE",MANHATTAN,"32 WEST  92 STREET, NY, 10025","32 W 92nd St, New York, NY 10025, USA",40.7894371,-73.9680806
03M250,M.S. 250 West Side Collaborative Middle School,JUNIOR HIGH-INTERMEDIATE-MIDDLE,1.2,1.0,0.2,1,0,0.0,0.2,0.0,0,0.0,0.2,152,130,152,152,03M250,M,1.0,M250,M.S. 250 WEST SIDE COLLABORATIVE MIDDLE SCHOOL,Junior High-Intermediate-Middle,1.0,3.0,3.0,735 WEST END AVENUE,NY,10025,JEANNE ROTUNDA,212-866-6313,212-678-5295,"06,07,08,SE",MANHATTAN,"735 WEST END AVENUE, NY, 10025","735 West End Ave, New York, NY 10025, USA",40.7952089,-73.9739578
03M256,Lafayette Academy,JUNIOR HIGH-INTERMEDIATE-MIDDLE,2.0,2.0,0.0,2,0,0.0,0.0,0.0,0,0.0,0.0,143,72,72,143,03M256,M,1.0,M256,M.S. 256 ACADEMIC & ATHLETIC EXCELLENCE,Junior High-Intermediate-Middle,1.0,3.0,3.0,154 WEST  93 STREET,NY,10025,Jeffrey S. Perl,212-222-2857,212-531-0586,"06,07,08,SE",MANHATTAN,"154 WEST  93 STREET, NY, 10025","154 W 93rd St, New York, NY 10025, USA",40.7912562,-73.9711111
03M258,Community Action School - MS 258,JUNIOR HIGH-INTERMEDIATE-MIDDLE,1.2,1.0,0.2,1,0,0.0,0.2,1.0,0,0.0,0.2,244,203,244,244,03M258,M,1.0,M258,M.S. 258 COMMUNITY ACTION SCHOOL,Junior High-Intermediate-Middle,1.0,3.0,3.0,154 WEST  93 STREET,NY,10025,JOHN CURRY,212-678-5888,212-961-1613,"06,07,08,SE",MANHATTAN,"154 WEST  93 STREET, NY, 10025","154 W 93rd St, New York, NY 10025, USA",40.7912562,-73.9711111
03M291,West End Secondary School,SECONDARY SCHOOL,3.0,3.0,0.0,3,0,0.0,0.0,0.0,0,0.0,0.0,534,178,178,534,,,,,,,,,,,,,,,,,,"227-243 West 61st Street, Manhattan, 10023","227 W 61st St #243, New York, NY 10023, USA",40.7726113,-73.988348
03M307,"Urban Assembly School for Media Studies, The",HIGH SCHOOL,3.0,3.0,0.0,3,0,0.0,0.0,0.0,0,0.0,0.0,409,136,136,409,03M307,M,1.0,M307,"URBAN ASSEMBLY SCHOOL FOR MEDIA STUDIES, THE",High school,1.0,3.0,3.0,122 AMSTERDAM AVENUE,NY,10023,CORDELIA VEVE,212-501-1110,212-580-0156,"09,10,11,12,SE",MANHATTAN,"122 AMSTERDAM AVENUE, NY, 10023","122 Amsterdam Ave, New York, NY 10023, USA",40.7748463,-73.9856659
03M334,The Anderson School,K-8,1.0,1.0,0.0,1,0,0.0,0.0,0.0,0,0.0,0.0,522,522,522,522,03M334,M,1.0,M334,THE ANDERSON SCHOOL,K-8,1.0,3.0,3.0,100 WEST  77 STREET,NY,10024,JODI HYDE,212-595-7193,212-496-2854,"0K,01,02,03,04,05,06,07,08",MANHATTAN,"100 WEST  77 STREET, NY, 10024","100 W 77th St, New York, NY 10024, USA",40.7810978,-73.97809649999999
03M403,The Global Learning Collaborative,HIGH SCHOOL,1.0,1.0,0.0,1,0,0.0,0.0,1.0,0,0.0,0.0,419,419,419,419,03M403,M,1.0,M403,THE GLOBAL LEARNING COLLABORATIVE,High school,1.0,3.0,3.0,145 WEST  84 STREET,NY,10024,JENNIFER ZINN,212-918-1983,212-877-1138,"09,10,SE",MANHATTAN,"145 WEST  84 STREET, NY, 10024","145 W 84th St, New York, NY 10024, USA",40.7860105,-73.9740956
03M415,Wadleigh Secondary School for the Performing & Vis,SECONDARY SCHOOL,3.0,3.0,0.0,3,0,0.0,0.0,0.0,0,0.0,0.0,313,104,104,313,03M415,M,1.0,M415,WADLEIGH SECONDARY SCHOOL FOR THE PERFORMING & VIS,Secondary School,1.0,3.0,3.0,215 WEST 114 STREET,NY,10026,HERMA HALL,212-749-5800,212-749-6463,"06,07,08,09,10,11,12,SE",MANHATTAN,"215 WEST 114 STREET, NY, 10026","215 W 114th St, New York, NY 10026, USA",40.8025744,-73.95414029999999
03M417,Frank McCourt High School,HIGH SCHOOL,2.2,2.0,0.2,2,0,0.0,0.2,0.0,0,0.0,0.2,402,186,201,402,03M417,M,1.0,M417,FRANK McCOURT HIGH SCHOOL,High school,1.0,3.0,3.0,145 WEST  84 STREET,NY,10024,Danielle Salzberg,212-362-2015,212-362-5926,"09,SE",MANHATTAN,"145 WEST  84 STREET, NY, 10024","145 W 84th St, New York, NY 10024, USA",40.7860105,-73.9740956
03M421,West Prep Academy,JUNIOR HIGH-INTERMEDIATE-MIDDLE,2.2,2.0,0.2,2,0,0.0,0.2,0.0,0,0.0,0.2,183,83,92,183,03M421,M,1.0,M421,WEST PREP ACADEMY,Junior High-Intermediate-Middle,1.0,3.0,3.0,150 WEST 105 STREET,NY,10025,Roberto Padilla,212-362-1674,212-362-2794,"06,07,SE",MANHATTAN,"150 WEST 105 STREET, NY, 10025","150 W 105th St, New York, NY 10025, USA",40.7990784,-73.965096
03M492,"High School for Law, Advocacy and Community Justic",HIGH SCHOOL,2.0,2.0,0.0,2,0,0.0,0.0,0.0,0,0.0,0.0,405,203,203,405,03M492,M,1.0,M492,"HIGH SCHOOL FOR LAW, ADVOCACY AND COMMUNITY JUSTIC",High school,1.0,3.0,3.0,122 AMSTERDAM AVENUE,NY,10023,MIRIAM NIGHTENGALE,212-501-1201,212-501-1195,"09,10,11,12,SE",MANHATTAN,"122 AMSTERDAM AVENUE, NY, 10023","122 Amsterdam Ave, New York, NY 10023, USA",40.7748463,-73.9856659
03M860,Frederick Douglass Academy II Secondary School,SECONDARY SCHOOL,3.3,3.0,0.3,3,0,0.0,0.3,0.0,0,0.0,0.3,321,99,107,321,03M860,M,1.0,M860,FREDERICK DOUGLASS ACADEMY II SECONDARY SCHOOL,Secondary School,1.0,3.0,3.0,215 WEST 114 STREET,NY,10026,Osei Owusu-Afriyie,212-865-9260,212-865-9281,"06,07,08,09,10,11,12,SE",MANHATTAN,"215 WEST 114 STREET, NY, 10026","215 W 114th St, New York, NY 10026, USA",40.8025744,-73.95414029999999
03M862,Mott Hall II,JUNIOR HIGH-INTERMEDIATE-MIDDLE,2.2,2.0,0.2,2,0,0.0,0.2,0.0,0,0.0,0.2,415,192,208,415,03M862,M,1.0,M862,MOTT HALL II,Junior High-Intermediate-Middle,1.0,3.0,3.0,234 WEST 109 STREET,NY,10025,ANA DE LOS SANTOS,212-678-2960,212-222-0560,"06,07,08,SE",MANHATTAN,"234 WEST 109 STREET, NY, 10025","234 W 109th St, New York, NY 10025, USA",40.8026474,-73.9660602
04M007,P.S. 007 Samuel Stern,K-8,2.0,2.0,0.0,2,0,0.0,0.0,0.0,0,0.0,0.0,366,183,183,366,04M007,M,1.0,M007,P.S. 007 SAMUEL STERN,K-8,1.0,4.0,4.0,160 EAST 120 STREET,NY,10035,RACQUEL JONES,212-860-5827,212-860-6070,"PK,0K,01,02,03,04,05,06,07,08,SE",MANHATTAN,"160 EAST 120 STREET, NY, 10035","160 E 120th St, New York, NY 10035, USA",40.8007729,-73.9393346
04M083,P.S. 083 Luis Munoz Rivera,ELEMENTARY,1.0,1.0,0.0,1,0,0.0,0.0,0.0,0,0.0,0.0,371,371,371,371,04M083,M,1.0,M083,P.S. 083 LUIS MUNOZ RIVERA,Elementary,1.0,4.0,4.0,219 EAST 109 STREET,NY,10029,FRANCES CASTILLO,212-860-5847,212-860-6073,"PK,0K,01,02,03,04,05,SE",MANHATTAN,"219 EAST 109 STREET, NY, 10029","219 E 109th St, New York, NY 10029, USA",40.7931298,-73.9418125
04M224,M.S. 224 Manhattan East School for Arts & Academic,JUNIOR HIGH-INTERMEDIATE-MIDDLE,2.2,2.0,0.2,2,0,0.0,0.2,1.0,0,0.0,0.2,208,96,104,208,04M224,M,1.0,M224,M.S. 224 MANHATTAN EAST SCHOOL FOR ARTS & ACADEMIC,Junior High-Intermediate-Middle,1.0,4.0,4.0,410 EAST 100 STREET,NY,10029,Liliana Sarro,212-860-6047,212-410-0678,"06,07,08,SE",MANHATTAN,"410 EAST 100 STREET, NY, 10029","410 E 100th St, New York, NY 10029, USA",40.7851753,-73.9424573
04M310,The Judith S. Kaye School,HIGH SCHOOL,GC and SW counts reflected on 79M331 budget,0.0,0.0,0,0,0.0,0.0,0.0,0,0.0,0.0,147,see note in column D,see note in column D,see note in column D,,,,,,,,,,,,,,,,,,"321 East 96 Street, Manhattan, 10128","321 E 96th St, New York, NY 10029, USA",40.7838182,-73.9448453
04M375,Mosaic Preparatory Academy,ELEMENTARY,2.0,2.0,0.0,2,0,0.0,0.0,0.0,0,0.0,0.0,254,127,127,254,04M375,M,1.0,M375,MOSAIC PREPARATORY ACADEMY,Elementary,1.0,4.0,4.0,141 EAST 111 STREET,NY,10029,LISETTE CAESAR,212-722-3109,212-722-3167,"PK,0K,01,02,03,04,05,SE",MANHATTAN,"141 EAST 111 STREET, NY, 10029","141 E 111th St, New York, NY 10029, USA",40.7959016,-73.9446616
04M377,Renaissance School of the Arts,JUNIOR HIGH-INTERMEDIATE-MIDDLE,1.2,1.0,0.2,1,0,0.0,0.2,0.0,0,0.0,0.2,202,173,202,202,04M377,M,1.0,M377,RENAISSANCE SCHOOL OF THE ARTS,Junior High-Intermediate-Middle,1.0,4.0,4.0,410 EAST 100 STREET,NY,10029,TAMMY PATE,212-369-1564,212-369-1693,"06,07,08,SE",MANHATTAN,"410 EAST 100 STREET, NY, 10029","410 E 100th St, New York, NY 10029, USA",40.7851753,-73.9424573
04M610,Young Women's Leadership School,SECONDARY SCHOOL,1.4,1.2,0.2,1,0,0.2,0.2,0.0,0,0.2,0.2,474,347,395,474,04M610,M,1.0,M610,YOUNG WOMEN'S LEADERSHIP SCHOOL,Secondary School,1.0,4.0,4.0,105 EAST 106 STREET,NY,10029,ALTHEA BRADSHAW-TYSON,212-289-7593,212-289-7728,"06,07,08,09,10,11,12",MANHATTAN,"105 EAST 106 STREET, NY, 10029","105 E 106th St, New York, NY 10029, USA",40.792935,-73.94716799999999
04M680,"Heritage School, The",HIGH SCHOOL,2.0,2.0,0.0,2,0,0.0,0.0,1.0,0,0.0,0.0,311,156,156,311,04M680,M,1.0,M680,"HERITAGE SCHOOL, THE",High school,1.0,4.0,4.0,1680 LEXINGTON AVENUE,NY,10029,LUIS ALBERTO DUANY,212-828-2858,212-828-2861,"09,10,11,12,SE",MANHATTAN,"1680 LEXINGTON AVENUE, NY, 10029","1680 Lexington Ave, New York, NY 10029, USA",40.7918963,-73.94686589999999
04M964,Central Park East II,K-8,1.0,1.0,0.0,1,0,0.0,0.0,1.0,0,0.0,0.0,466,466,466,466,04M964,M,1.0,M964,CENTRAL PARK EAST II,Elementary,1.0,4.0,4.0,19 EAST 103 STREET,NY,10029,NAOMI SMITH,212-860-5992,212-410-6041,"PK,0K,01,02,03,04,05,SE",MANHATTAN,"19 EAST 103 STREET, NY, 10029","19 E 103rd St, New York, NY 10029, USA",40.7923184,-73.951458
05M125,P.S. 125 Ralph Bunche,ELEMENTARY,1.0,1.0,0.0,1,0,0.0,0.0,0.0,0,0.0,0.0,303,303,303,303,05M125,M,1.0,M125,P.S. 125 RALPH BUNCHE,Elementary,1.0,5.0,5.0,425 WEST 123 STREET,NY,10027,RAFAELA ESPINAL PACHECO,212-666-6400,212-749-1291,"PK,0K,01,02,03,04,05,SE",MANHATTAN,"425 WEST 123 STREET, NY, 10027","425 W 123rd St, New York, NY 10027, USA",40.810687,-73.95606099999999
05M154,P.S. 154 Harriet Tubman,ELEMENTARY,1.0,1.0,0.0,1,0,0.0,0.0,0.0,0,0.0,0.0,282,282,282,282,05M154,M,1.0,M154,P.S. 154 HARRIET TUBMAN,Elementary,1.0,5.0,5.0,250 WEST 127 STREET,NY,10027,ELIZABETH JARRETT,212-864-2400,212-864-3933,"PK,0K,01,02,03,04,05,SE",MANHATTAN,"250 WEST 127 STREET, NY, 10027","250 W 127th St, New York, NY 10027, USA",40.8106338,-73.9487487
05M157,The Urban Assembly School for Global Commerce,HIGH SCHOOL,2.0,2.0,0.0,2,0,0.0,0.0,0.0,0,0.0,0.0,233,117,117,233,,,,,,,,,,,,,,,,,,"2005 MADISON AVENUE, Manhattan, 10035","2005 Madison Ave, New York, NY 10035, USA",40.80706259999999,-73.9388293
05M194,P.S. 194 Countee Cullen,ELEMENTARY,1.0,1.0,0.0,1,0,0.0,0.0,0.0,0,0.0,0.0,185,185,185,185,05M194,M,1.0,M194,P.S. 194 COUNTEE CULLEN,Elementary,1.0,5.0,5.0,244 WEST 144 STREET,NY,10030,Charyn Koppelson Cleary,212-690-5954,212-862-5743,"0K,01,02,03,04,05,SE",MANHATTAN,"244 WEST 144 STREET, NY, 10030","244 W 144th St, New York, NY 10030, USA",40.8212338,-73.9406204
05M285,Harlem Renaissance High School,HIGH SCHOOL,1.0,1.0,0.0,1,0,0.0,0.0,0.0,0,0.0,0.0,213,213,213,213,05M285,M,1.0,M285,HARLEM RENAISSANCE HIGH SCHOOL,High school,1.0,5.0,5.0,22 EAST 128 STREET,NY,10035,Nadav Zeimer,212-996-3795,212-996-4354,"09,10,11,12,SE",MANHATTAN,"22 EAST 128 STREET, NY, 10035","22 E 128th St, New York, NY 10035, USA",40.80780439999999,-73.9399775
05M286,Urban Assembly Academy for Future Leaders,JUNIOR HIGH-INTERMEDIATE-MIDDLE,1.0,1.0,0.0,1,0,0.0,0.0,0.0,0,0.0,0.0,103,103,103,103,05M286,M,1.0,M286,I.S. M286 RENAISSANCE MILITARY LEADERSHIP ACADEMY,Junior High-Intermediate-Middle,1.0,5.0,5.0,509 WEST 129 STREET,NY,10027,QADIR BEN DIXON,212-690-5972,212-694-4124,"06,07,08,SE",MANHATTAN,"509 WEST 129 STREET, NY, 10027","509 W 129th St, New York, NY 10027, USA",40.8156813,-73.95577449999999
05M304,Mott Hall High School,HIGH SCHOOL,1.0,1.0,0.0,1,0,0.0,0.0,0.0,0,0.0,0.0,239,239,239,239,05M304,M,1.0,M304,MOTT HALL HIGH SCHOOL,High school,1.0,5.0,5.0,6 EDGECOMBE AVENUE,NY,10030,Altagracia Villalona,212-690-5501,212-690-5047,"09,10,11,12,SE",MANHATTAN,"6 EDGECOMBE AVENUE, NY, 10030","6 Edgecombe Ave, New York, NY 10030, USA",40.8174596,-73.94714139999999
05M318,Thurgood Marshall Academy Lower School,ELEMENTARY,1.0,1.0,0.0,1,0,0.0,0.0,0.0,0,0.0,0.0,206,206,206,206,05M318,M,1.0,M318,THURGOOD MARSHALL ACADEMY LOWER SCHOOL,Elementary,1.0,5.0,5.0,276 WEST 151ST STREET,NY,10039,SEAN DAVENPORT,212-368-8731,212-368-8641,"0K,01,02,03,04,05",MANHATTAN,"276 WEST 151ST STREET, NY, 10039","276 W 151st St, New York, NY 10039, USA",40.8258675,-73.9378107
05M362,Columbia Secondary School,SECONDARY SCHOOL,2.0,2.0,0.0,2,0,0.0,0.0,1.0,0,0.0,0.0,698,349,349,698,05M362,M,1.0,M362,COLUMBIA SECONDARY SCHOOL,Junior High-Intermediate-Middle,1.0,5.0,5.0,425 WEST 123 STREET,NY,10027,Gary Biester,212-666-1278,212-666-3805,"06,07,08,09,SE",MANHATTAN,"425 WEST 123 STREET, NY, 10027","425 W 123rd St, New York, NY 10027, USA",40.810687,-73.95606099999999
05M371,School of Earth Exploration and Discovery Harlem (SEED Harlem),JUNIOR HIGH-INTERMEDIATE-MIDDLE,1.0,1.0,0.0,1,0,0.0,0.0,0.0,0,0.0,0.0,77,77,77,77,,,,,,,,,,,,,,,,,,"425 WEST 130 STREET, Manhattan, 10027","425 W 130th St, New York, NY 10027, USA",40.8150175,-73.9521927
05M514,New Design Middle School,JUNIOR HIGH-INTERMEDIATE-MIDDLE,1.0,1.0,0.0,1,0,0.0,0.0,0.0,0,0.0,0.0,138,138,138,138,05M514,M,1.0,M514,New Design Middle School,Junior High-Intermediate-Middle,1.0,5.0,5.0,625 WEST 133 STREET,NY,10027,Dan Black,718-935-3597,,"06,07,08",MANHATTAN,"625 WEST 133 STREET, NY, 10027","625 W 133rd St, New York, NY 10027, USA",40.81970159999999,-73.9567465
05M670,Thurgood Marshall Academy for Learning and Social,SECONDARY SCHOOL,2.0,2.0,0.0,2,0,0.0,0.0,0.0,0,0.0,0.0,541,271,271,541,05M670,M,1.0,M670,THURGOOD MARSHALL ACADEMY FOR LEARNING AND SOCIAL,Secondary School,1.0,5.0,5.0,200-214 WEST 135TH STREET,NY,10030,Sandye Johnson,212-283-8055,212-283-8109,"06,07,08,09,10,11,12,SE",NEW YORK,"200-214 WEST 135TH STREET, NY, 10030","200 W 135th St #214, New York, NY 10030, USA",40.8152484,-73.9443203
05M692,"High School for Mathematics, Science and Engineeri",HIGH SCHOOL,2.0,2.0,0.0,2,0,0.0,0.0,0.0,0,0.0,0.0,485,243,243,485,05M692,M,1.0,M692,"HIGH SCHOOL FOR MATHEMATICS, SCIENCE AND ENGINEERI",High school,1.0,5.0,5.0,240 CONVENT AVE,NY,10031,WILLIAM DUGAN,212-281-6490,212-281-6918,"09,10,11,12",NEW YORK,"240 CONVENT AVE, NY, 10031","240 Convent Ave, New York, NY 10031, USA",40.8214739,-73.94903889999999
06M008,P.S. 008 Luis Belliard,ELEMENTARY,1.0,1.0,0.0,1,0,0.0,0.0,0.0,0,0.0,0.0,480,480,480,480,06M008,M,1.0,M008,P.S. 008 LUIS BELLIARD,Elementary,1.0,6.0,6.0,465 WEST 167 STREET,NY,10032,RAFAELA LANDIN,212-928-4364,212-928-4072,"0K,01,02,03,04,05,SE",MANHATTAN,"465 WEST 167 STREET, NY, 10032","465 W 167th St, New York, NY 10032, USA",40.8392786,-73.9366251
06M018,P.S. 018 Park Terrace,K-8,1.0,1.0,0.0,1,0,0.0,0.0,0.0,0,0.0,0.0,349,349,349,349,06M018,M,1.0,M018,P.S. 018 PARK TERRACE,K-8,1.0,6.0,6.0,4124 9 AVENUE,NY,10034,Connie Mejia,212-567-4353,212-304-1423,"0K,01,02,03,04,05,06,07,08,SE",MANHATTAN,"4124 9 AVENUE, NY, 10034","4124 9th Ave, New York, NY 10034, USA",40.8716912,-73.9117038
06M098,P.S. 098 Shorac Kappock,ELEMENTARY,1.0,1.0,0.0,1,0,0.0,0.0,1.0,0,0.0,0.0,414,414,414,414,06M098,M,1.0,M098,P.S. 098 SHORAC KAPPOCK,Elementary,1.0,6.0,6.0,512 WEST 212 STREET,NY,10034,MARITZA RODRIGUEZ,212-927-7870,212-569-1827,"PK,0K,01,02,03,04,05,SE",MANHATTAN,"512 WEST 212 STREET, NY, 10034","512 W 212th St, New York, NY 10034, USA",40.8678429,-73.9176573
06M132,P.S. 132 Juan Pablo Duarte,ELEMENTARY,1.0,1.0,0.0,1,0,0.0,0.0,1.0,0,0.0,0.0,205,205,205,205,06M132,M,1.0,M132,P.S. 132 JUAN PABLO DUARTE,Elementary,1.0,6.0,6.0,185 WADSWORTH AVENUE,NY,10033,XIOMARA NOVA,212-927-7857,212-568-8163,"0K,01,02,03,04,05,SE",MANHATTAN,"185 WADSWORTH AVENUE, NY, 10033","185 Wadsworth Ave, New York, NY 10033, USA",40.8505665,-73.9339155
06M143,J.H.S. 143 Eleanor Roosevelt,JUNIOR HIGH-INTERMEDIATE-MIDDLE,1.0,1.0,0.0,1,0,0.0,0.0,1.0,0,0.0,0.0,222,222,222,222,06M143,M,1.0,M143,J.H.S. 143 ELEANOR ROOSEVELT,Junior High-Intermediate-Middle,1.0,6.0,6.0,511 WEST 182ND STREET,NY,10033,OURANIA PAPPAS,212-927-7739,212-781-5539,"06,07,08,SE",MANHATTAN,"511 WEST 182ND STREET, NY, 10033","511 W 182nd St, New York, NY 10033, USA",40.8490987,-73.9311063
06M187,P.S./I.S. 187 Hudson Cliffs,K-8,4.0,4.0,0.0,4,0,0.0,0.0,0.0,0,0.0,0.0,785,196,196,785,06M187,M,1.0,M187,P.S. 187 HUDSON CLIFFS,K-8,1.0,6.0,6.0,349 CABRINI BOULEVARD,NY,10040,Ms. Cynthia Chory,212-927-8218,212-795-9119,"PK,0K,01,02,03,04,05,06,07,08,SE",MANHATTAN,"349 CABRINI BOULEVARD, NY, 10040","349 Cabrini Blvd, New York, NY 10040, USA",40.8560964,-73.93703839999999
06M210,P.S./I.S. 210 - Twenty-first Century Academy for C,K-8,1.0,1.0,0.0,1,0,0.0,0.0,1.0,0,0.0,0.0,430,430,430,430,06M210,M,1.0,M210,P.S. 210 - 21ST CENTURY ACADEMY,K-8,1.0,6.0,6.0,501-503 WEST 152 STREET,NY,10031,EVELYN LINARES,212-283-0012,212-283-0017,"PK,0K,01,02,03,04,05,06,07,08,SE",NEW YORK,"501-503 WEST 152 STREET, NY, 10031","501-503 W 152nd St, New York, NY 10031, USA",40.8299318,-73.9445704
06M223,The Mott Hall School,JUNIOR HIGH-INTERMEDIATE-MIDDLE,2.0,2.0,0.0,2,0,0.0,0.0,0.0,0,0.0,0.0,290,145,145,290,06M223,M,1.0,M223,THE MOTT HALL SCHOOL,Junior High-Intermediate-Middle,1.0,6.0,6.0,71-111 CONVENT AVE,NY,10027,CYNTHIA ARNDT,212-281-5028,212-491-3451,"06,07,08,SE",MANHATTAN,"71-111 CONVENT AVE, NY, 10027","71 Convent Ave, New York, NY 10027, USA",40.81577679999999,-73.95265189999999
06M278,Paula Hedbavny School,K-8,1.0,1.0,0.0,1,0,0.0,0.0,0.0,0,0.0,0.0,521,521,521,521,06M278,M,1.0,M278,P.S./I.S. 278,K-8,1.0,6.0,6.0,421 W 219TH ST,NY,10034,MAUREEN GUIDO,212-942-3440,,"0K,01,02,03,04,05,06,07,08,SE",MANHATTAN,"421 W 219TH ST, NY, 10034","421 W 219th St, New York, NY 10034, USA",40.8714909,-73.9122076
06M293,City College Academy of the Arts,SECONDARY SCHOOL,3.2,3.0,0.2,3,0,0.0,0.2,2.0,0,0.0,0.2,612,191,204,612,06M293,M,1.0,M293,CITY COLLEGE ACADEMY OF THE ARTS,Secondary School,1.0,6.0,6.0,4600 BROADWAY,NY,10040,Bernadette Drysdale,212-567-3164,212-567-3958,"06,07,08,09,10,11,SE",MANHATTAN,"4600 BROADWAY, NY, 10040","4600 Broadway, New York, NY 10040, USA",40.8608344,-73.9300119
06M311,Amistad Dual Language School,K-8,1.0,1.0,0.0,1,0,0.0,0.0,0.0,0,0.0,0.0,427,427,427,427,06M311,M,1.0,M311,AMISTAD DUAL LANGUAGE SCHOOL,K-8,1.0,6.0,6.0,4862 BROADWAY,NY,10034,MIRIAM PEDRAJA,212-544-8021,212-569-7765,"0K,01,02,03,04,05,06,07,08,SE",MANHATTAN,"4862 BROADWAY, NY, 10034","4862 Broadway, New York, NY 10034, USA",40.8662865,-73.9239496
06M314,Muscota,ELEMENTARY,1.0,1.0,0.0,1,0,0.0,0.0,0.0,0,0.0,0.0,302,302,302,302,06M314,M,1.0,M314,MUSCOTA,Elementary,1.0,6.0,6.0,4862 BROADWAY,NY,10034,CAMILLE WALLIN,212-544-0614,212-544-2678,"0K,01,02,03,04,05,SE",MANHATTAN,"4862 BROADWAY, NY, 10034","4862 Broadway, New York, NY 10034, USA",40.8662865,-73.9239496
06M322,Middle School 322,JUNIOR HIGH-INTERMEDIATE-MIDDLE,1.0,1.0,0.0,1,0,0.0,0.0,0.0,0,0.0,0.0,325,325,325,325,06M322,M,1.0,M322,MIDDLE SCHOOL 322,Junior High-Intermediate-Middle,1.0,6.0,6.0,4600 BROADWAY,NY,10040,ERICA ZIGELMAN,212-304-0853,212-567-3016,"06,07,08,SE",MANHATTAN,"4600 BROADWAY, NY, 10040","4600 Broadway, New York, NY 10040, USA",40.8608344,-73.9300119
06M324,M.S. 324 - Patria Mirabal,JUNIOR HIGH-INTERMEDIATE-MIDDLE,1.0,1.0,0.0,1,0,0.0,0.0,1.0,0,0.0,0.0,319,319,319,319,06M324,M,1.0,M324,M.S. 324 - PATRIA,Junior High-Intermediate-Middle,1.0,6.0,6.0,21 JUMEL PLACE,NY,10032,JANET HELLER,212-923-4057,212-923-4626,"06,07,08,SE",MANHATTAN,"21 JUMEL PLACE, NY, 10032","21 Jumel Pl, New York, NY 10032, USA",40.839456,-73.9357066
06M328,Community Math & Science Prep,JUNIOR HIGH-INTERMEDIATE-MIDDLE,0.4,0.4,0.0,0,0,0.4,0.0,0.0,0,0.4,0.0,167,167,167,167,06M328,M,1.0,M328,M.S. 328 - MANHATTAN MIDDLE SCHOOL FOR SCIENTIFIC,Junior High-Intermediate-Middle,1.0,6.0,6.0,401 WEST 164 STREET,NY,10032,JORGE ESTRELLA,917-521-2508,917-521-7797,"06,07,08,SE",MANHATTAN,"401 WEST 164 STREET, NY, 10032","401 W 164th St, New York, NY 10032, USA",40.8369119,-73.9374121
06M349,Harbor Heights,JUNIOR HIGH-INTERMEDIATE-MIDDLE,1.0,1.0,0.0,1,0,0.0,0.0,1.0,0,0.0,0.0,123,123,123,123,06M349,M,1.0,M349,HARBOR HEIGHTS,Junior High-Intermediate-Middle,1.0,6.0,6.0,306 FORT WASHINGTON AVENUE,NY,10033,MONICA KLEHR,212-568-6052,212-568-7959,"06,07,08",MANHATTAN,"306 FORT WASHINGTON AVENUE, NY, 10033","306 Fort Washington Ave, New York, NY 10033, USA",40.8455807,-73.9394149
06M366,Washington Heights Academy,K-8,2.0,2.0,0.0,2,0,0.0,0.0,0.0,0,0.0,0.0,579,290,290,579,06M366,M,1.0,M366,WASHINGTON HEIGHTS ACADEMY,Elementary,1.0,6.0,6.0,202 SHERMAN AVE,NY,10034,CRYSTAL M. FELIX,212-304-3320,212-304-3322,"PK,0K,01,02,03,04,05",MANHATTAN,"202 SHERMAN AVE, NY, 10034","Messiah Mission Church, 202 Sherman Ave, New York, NY 10034, USA",40.8655288,-73.92160729999999
06M368,Hamilton Heights School,ELEMENTARY,1.0,1.0,0.0,1,0,0.0,0.0,0.0,0,0.0,0.0,160,160,160,160,06M368,M,1.0,M368,HAMILTON HEIGHTS SCHOOL,Elementary,1.0,6.0,6.0,1750 AMSTERDAM AVENUE,NY,10031,ALVA BUXENBAUM,212-862-9940,212-862-9946,"0K,01,02,03,04,05",MANHATTAN,"1750 AMSTERDAM AVENUE, NY, 10031","1750 Amsterdam Ave, New York, NY 10031, USA",40.8266666,-73.94764649999999
06M423,High School for Excellence and Innovation,HIGH SCHOOL,2.0,2.0,0.0,2,0,0.0,0.0,1.0,0,0.0,0.0,189,95,95,189,06M423,M,1.0,M423,HIGH SCHOOL FOR EXCELLENCE AND INNOVATION,High school,1.0,6.0,6.0,650 ACADEMY STREET,NY,10034,TYONA WASHINGTON,212-569-1022,212-569-1190,"09,10,SE",MANHATTAN,"650 ACADEMY STREET, NY, 10034","650 Academy St, New York, NY 10034, USA",40.8659143,-73.925157
06M462,The College Academy,HIGH SCHOOL,2.0,2.0,0.0,2,0,0.0,0.0,2.0,0,0.0,0.0,367,184,184,367,06M462,M,1.0,M462,HIGH SCHOOL FOR INTERNATIONAL BUSINESS AND FINANCE,High school,1.0,6.0,6.0,549 AUDUBON AVENUE,NY,10040,Peter Sloman,212-927-1841,212-927-2388,"09,10,11,12,SE",MANHATTAN,"549 AUDUBON AVENUE, NY, 10040","549 Audubon Ave, New York, NY 10040, USA",40.8561208,-73.9263326
06M463,High School for Media and Communications,HIGH SCHOOL,3.0,3.0,0.0,3,0,0.0,0.0,0.0,0,0.0,0.0,350,117,117,350,06M463,M,1.0,M463,HIGH SCHOOL FOR MEDIA AND COMMUNICATIONS,High school,1.0,6.0,6.0,549 AUDUBON AVENUE,NY,10040,Ronni Michelen,212-927-1841,212-927-2326,"09,10,11,12,SE",MANHATTAN,"549 AUDUBON AVENUE, NY, 10040","549 Audubon Ave, New York, NY 10040, USA",40.8561208,-73.9263326
06M468,High School for Health Careers and Sciences,HIGH SCHOOL,2.0,2.0,0.0,2,0,0.0,0.0,1.0,0,0.0,0.0,401,201,201,401,06M468,M,1.0,M468,HIGH SCHOOL FOR HEALTH CAREERS AND SCIENCES,High school,1.0,6.0,6.0,549 AUDUBON AVENUE,NY,10040,HARRIS MARMOR,212-927-1841,212-927-2179,"09,10,11,12,SE",MANHATTAN,"549 AUDUBON AVENUE, NY, 10040","549 Audubon Ave, New York, NY 10040, USA",40.8561208,-73.9263326
06M528,I.S. 528 Bea Fuller Rodgers School,JUNIOR HIGH-INTERMEDIATE-MIDDLE,1.0,1.0,0.0,1,0,0.0,0.0,1.0,0,0.0,0.0,248,248,248,248,06M528,M,1.0,M528,I.S. 528 BEA FULLER RODGERS SCHOOL,Junior High-Intermediate-Middle,1.0,6.0,6.0,180 WADSWORTH AVENUE,NY,10033,Kristy Dela Cruz,212-740-4900,212-781-7302,"06,07,08,SE",MANHATTAN,"180 WADSWORTH AVENUE, NY, 10033","180 Wadsworth Ave, New York, NY 10033, USA",40.8506712,-73.9346503
06M552,Gregorio Luperon High School for Science and Mathe,HIGH SCHOOL,3.0,3.0,0.0,3,0,0.0,0.0,0.0,0,0.0,0.0,521,174,174,521,06M552,M,1.0,M552,GREGORIO LUPERON HIGH SCHOOL FOR SCIENCE AND MATHE,High school,1.0,6.0,6.0,501 WEST 165TH,NY,10032,JUAN VILLAR,212-928-1202,212-928-1309,"09,10,11,12",MANHATTAN,"501 WEST 165TH, NY, 10032","501 W 165th St, New York, NY 10032, USA",40.83846,-73.9386364
07X154,P.S. 154 Jonathan D. Hyatt,ELEMENTARY,2.0,2.0,0.0,2,0,0.0,0.0,0.0,0,0.0,0.0,302,151,151,302,07X154,X,2.0,X154,P.S. 154 JONATHAN D. HYATT,Elementary,1.0,7.0,7.0,333 EAST 135 STREET,NY,10454,Marsha Elliott,718-292-4742,718-292-4721,"PK,0K,01,02,03,04,05,SE",BRONX,"333 EAST 135 STREET, NY, 10454","333 E 135th St, Bronx, NY 10454, USA",40.8082435,-73.92574069999999
07X179,P.S. 179,ELEMENTARY,1.4,1.4,0.0,1,0,0.4,0.0,0.0,0,0.4,0.0,312,223,223,312,07X179,X,2.0,X179,P.S. 179,Elementary,1.0,7.0,7.0,468 EAST 140 STREET,NY,10454,SHERRY FONT WILLIAMS,718-292-2237,718-292-3623,"PK,0K,01,02,03,04,05,SE",BRONX,"468 EAST 140 STREET, NY, 10454","468 E 140th St, Bronx, NY 10454, USA",40.8091409,-73.92013759999999
07X221,South Bronx Preparatory: A College Board School,SECONDARY SCHOOL,4.3,4.0,0.3,4,0,0.0,0.3,0.0,0,0.0,0.3,652,153,163,652,07X221,X,2.0,X221,SOUTH BRONX PREPARATORY: A COLLEGE BOARD SCHOOL,Secondary School,1.0,7.0,7.0,360 EAST 145 STREET,NY,10454,ELLEN REDDON FLANAGAN,718-292-2211,718-292-2172,"06,07,08,09,10,11,12,SE",BRONX,"360 EAST 145 STREET, NY, 10454","360 E 145th St, Bronx, NY 10454, USA",40.8137231,-73.9206428
07X369,Young Leaders Elementary School,ELEMENTARY,1.0,1.0,0.0,1,0,0.0,0.0,1.0,0,0.0,0.0,248,248,248,248,07X369,X,2.0,X369,YOUNG LEADERS ELEMENTARY SCHOOL,Elementary,1.0,7.0,7.0,468 EAST 140 STREET,NY,10454,KAREN COLLINS,718-292-7391,718-292-8535,"PK,0K,01,02,03,04,05,SE",BRONX,"468 EAST 140 STREET, NY, 10454","468 E 140th St, Bronx, NY 10454, USA",40.8091409,-73.92013759999999
07X381,Bronx Haven High School,HIGH SCHOOL,2.0,2.0,0.0,2,0,0.0,0.0,0.0,0,0.0,0.0,169,85,85,169,,,,,,,,,,,,,,,,,,"333 EAST 151 STREET, Bronx, 10451","333 E 151st St, Bronx, NY 10451, USA",40.8184997,-73.9195405
07X625,Walkabout Bronx High School,HIGH SCHOOL,0.4,0.4,0.0,0,0,0.4,0.0,0.0,0,0.0,0.0,51,51,51,51,,,,,,,,,,,,,,,,,,"730 CONCOURSE VILLAGE WEST, Bronx, 10451","730 Concourse Village W, Bronx, NY 10451, USA",40.8219741,-73.9230741
08X014,P.S. X014 Senator John Calandra,ELEMENTARY,1.0,1.0,0.0,1,0,0.0,0.0,0.0,0,0.0,0.0,563,563,563,563,08X014,X,2.0,X014,P.S. X014 SENATOR JOHN CALANDRA,Elementary,1.0,8.0,8.0,3041 BRUCKNER BOULEVARD,NY,10461,Ira Schulman,718-822-5341,718-239-6386,"0K,01,02,03,04,05,SE",BRONX,"3041 BRUCKNER BOULEVARD, NY, 10461","3041 Bruckner Blvd, Bronx, NY 10461, USA",40.8352823,-73.8259217
08X036,P.S. 036 Unionport,ELEMENTARY,1.2,1.0,0.2,1,0,0.0,0.2,1.0,0,0.0,0.2,749,624,749,749,08X036,X,2.0,X036,P.S. 036 UNIONPORT,Elementary,1.0,8.0,8.0,1070 CASTLE HILL AVENUE,NY,10472,Elvira Maresca,718-822-5345,718-239-6390,"PK,0K,01,02,03,04,05,SE",BRONX,"1070 CASTLE HILL AVENUE, NY, 10472","1070 Castle Hill Ave, Bronx, NY 10472, USA",40.8294192,-73.849809
08X100,P.S. 100 Isaac Clason,ELEMENTARY,2.0,2.0,0.0,2,0,0.0,0.0,0.0,0,0.0,0.0,542,271,271,542,08X100,X,2.0,X100,P.S. 100 ISAAC CLASON,Elementary,1.0,8.0,8.0,800 TAYLOR AVENUE,NY,10473,CHAD ADAM ALTMAN,718-842-1461,718-328-5520,"PK,0K,01,02,03,04,05,SE",BRONX,"800 TAYLOR AVENUE, NY, 10473","800 Taylor Ave, Bronx, NY 10473, USA",40.82189169999999,-73.8626271
08X101,M.S. X101 Edward R. Byrne,JUNIOR HIGH-INTERMEDIATE-MIDDLE,1.0,1.0,0.0,1,0,0.0,0.0,0.0,0,0.0,0.0,545,545,545,545,08X101,X,2.0,X101,M.S. X101 EDWARD R. BYRNE,Junior High-Intermediate-Middle,1.0,8.0,8.0,2750 LAFAYETTE AVENUE,NY,10465,KIM HAMPTON HEWITT,718-829-6372,718-829-6594,"06,07,08,SE",BRONX,"2750 LAFAYETTE AVENUE, NY, 10465","2750 Lafayette Ave, Bronx, NY 10465, USA",40.827175,-73.8293166
08X123,J.H.S. 123 James M. Kieran,JUNIOR HIGH-INTERMEDIATE-MIDDLE,2.0,2.0,0.0,2,0,0.0,0.0,1.0,0,0.0,0.0,490,245,245,490,08X123,X,2.0,X123,J.H.S. 123 JAMES M. KIERAN,Junior High-Intermediate-Middle,1.0,8.0,8.0,1025 MORRISON AVENUE,NY,10472,Tyra Williams,718-328-2105,718-328-8561,"06,07,08,SE",BRONX,"1025 MORRISON AVENUE, NY, 10472","1025 Morrison Ave, Bronx, NY 10472, USA",40.82487709999999,-73.8740662
08X130,P.S. 130 Abram Stevens Hewitt,ELEMENTARY,1.0,1.0,0.0,1,0,0.0,0.0,0.0,0,0.0,0.0,395,395,395,395,08X130,X,2.0,X130,P.S. 130 ABRAM STEVENS HEWITT,Elementary,1.0,8.0,8.0,750 PROSPECT AVENUE,NY,10455,LOURDES VELAZQUEZ,718-665-0962,718-292-0417,"PK,0K,01,02,03,04,05,SE",BRONX,"750 PROSPECT AVENUE, NY, 10455","750 Prospect Ave, Bronx, NY 10455, USA",40.8176339,-73.9018573
08X146,P.S. 146 Edward Collins,ELEMENTARY,1.0,1.0,0.0,1,0,0.0,0.0,1.0,0,0.0,0.0,394,394,394,394,08X146,X,2.0,X146,P.S. 146 EDWARD COLLINS,Elementary,1.0,8.0,8.0,968 CAULDWELL AVENUE,NY,10456,Janet Sanderson-Brown,718-378-9664,718-328-5858,"PK,0K,01,02,03,04,05,SE",BRONX,"968 CAULDWELL AVENUE, NY, 10456","968 Cauldwell Ave, Bronx, NY 10456, USA",40.8251407,-73.9055782
08X282,Women's Academy of Excellence,HIGH SCHOOL,1.3,1.0,0.3,1,0,0.0,0.3,0.0,0,0.0,0.3,230,184,230,230,08X282,X,2.0,X282,"YOUNG WOMEN'S LEADERSHIP SCHOOL, BRONX CAMPUS",High school,1.0,8.0,8.0,456 WHITE PLAINS ROAD,NY,10473,ARNETTE CROCKER,718-542-0740,718-542-0841,"09,10,11,12,SE",BRONX,"456 WHITE PLAINS ROAD, NY, 10473","456 White Plains Rd, Bronx, NY 10473, USA",40.814901,-73.8560573
08X293,Renaissance High School for Musical Theater and th,HIGH SCHOOL,2.0,2.0,0.0,2,0,0.0,0.0,0.0,0,0.0,0.0,431,216,216,431,08X293,X,2.0,X293,RENAISSANCE HIGH SCHOOL OF MUSICAL THEATER & TECHN,High school,1.0,8.0,8.0,3000 EAST TREMONT AVENUE,NY,10461,MARIA N HERRERA,718-430-6390,718-430-6308,"09,10,11,12,SE",BRONX,"3000 EAST TREMONT AVENUE, NY, 10461","3000 E Tremont Ave, Bronx, NY 10461, USA",40.8398166,-73.83795490000001
08X320,Pelham Lab High School,HIGH SCHOOL,4.0,4.0,0.0,4,0,0.0,0.0,0.0,0,0.0,0.0,450,113,113,450,,,,,,,,,,,,,,,,,,"3000 EAST TREMONT AVENUE, Bronx, 10461","3000 E Tremont Ave, Bronx, NY 10461, USA",40.8398166,-73.83795490000001
08X348,Schuylerville Preparatory High School,HIGH SCHOOL,2.0,2.0,0.0,2,0,0.0,0.0,0.0,0,0.0,0.0,383,192,192,383,,,,,,,,,,,,,,,,,,"3000 EAST TREMONT AVENUE, Bronx, 10461","3000 E Tremont Ave, Bronx, NY 10461, USA",40.8398166,-73.83795490000001
08X377,Bronx Community High School,HIGH SCHOOL,1.0,1.0,0.0,1,0,0.0,0.0,1.0,0,0.0,0.0,136,136,136,136,08X377,X,2.0,X377,BRONX COMMUNITY HIGH SCHOOL,High school,1.0,8.0,8.0,1980 LAFAYETTE AVENUE,NY,10473,Flora Greenaway,718-892-1026,718-892-6941,"09,10,11,12",BRONX,"1980 LAFAYETTE AVENUE, NY, 10473","1980 Lafayette Ave, Bronx, NY 10473, USA",40.8211936,-73.856527
08X392,Bronx Delta School,ELEMENTARY,1.0,1.0,0.0,1,0,0.0,0.0,0.0,0,0.0,0.0,440,440,440,440,,,,,,,,,,,,,,,,,,"650 HOLLYWOOD AVENUE, Bronx, 10465","650 Hollywood Ave, Bronx, NY 10465, USA",40.8269794,-73.8182885
08X424,The Hunts Point School,JUNIOR HIGH-INTERMEDIATE-MIDDLE,2.0,2.0,0.0,2,0,0.0,0.0,0.0,0,0.0,0.0,289,145,145,289,08X424,X,2.0,X424,THE HUNTS POINT SCHOOL,Junior High-Intermediate-Middle,1.0,8.0,8.0,730 BRYANT AVENUE,NY,10474,JOHN HUGHES,718-328-1972,718-328-7330,"06,07,08,SE",BRONX,"730 BRYANT AVENUE, NY, 10474","730 Bryant Ave, Bronx, NY 10474, USA",40.8157147,-73.8853003
08X530,Longwood Preparatory Academy,HIGH SCHOOL,2.3,2.0,0.3,2,0,0.0,0.3,1.0,0,0.0,0.3,328,141,164,328,08X530,X,2.0,X530,BANANA KELLY HIGH SCHOOL,High school,1.0,8.0,8.0,965 LONGWOOD AVENUE,NY,10459,JOSHUA LAUB,718-860-1242,718-860-1934,"09,10,11,12,SE",BRONX,"965 LONGWOOD AVENUE, NY, 10459","965 Longwood Ave, Bronx, NY 10459, USA",40.8178276,-73.8978152
08X537,Bronx Arena High School,HIGH SCHOOL,Has counseling service (outside provider),0.0,0.0,0,0,0.0,0.0,0.0,0,0.0,0.0,195,see note in column D,see note in column D,see note in column D,08X537,X,2.0,X537,Bronx Arena High School,High school,1.0,8.0,8.0,1440 STORY AVENUE,NY,10473,Ty Cesene,718-935-3477,,"09,10,11,12",BRONX,"1440 STORY AVENUE, NY, 10473","1440 Story Ave, Bronx, NY 10473, USA",40.8210902,-73.8811252
08X583,P.S. 583,ELEMENTARY,1.0,1.0,0.0,1,0,0.0,0.0,0.0,0,0.0,0.0,265,265,265,265,,,,,,,,,,,,,,,,,,"1028 WHITE PLAINS ROAD, Bronx, 10472","1028 White Plains Rd, Bronx, NY 10472, USA",40.8270195,-73.85968679999999
09X011,P.S. 011 Highbridge,ELEMENTARY,1.0,1.0,0.0,1,0,0.0,0.0,0.0,0,0.0,0.0,558,558,558,558,09X011,X,2.0,X011,P.S. 011 HIGHBRIDGE,Elementary,1.0,9.0,9.0,1257 OGDEN AVENUE,NY,10452,ELIZABETH HACHAR,718-681-7553,718-681-7711,"0K,01,02,03,04,05,SE",BRONX,"1257 OGDEN AVENUE, NY, 10452","1257 Ogden Ave, Bronx, NY 10452, USA",40.8397377,-73.9257866
09X022,J.H.S. 022 Jordan L. Mott,JUNIOR HIGH-INTERMEDIATE-MIDDLE,2.0,2.0,0.0,2,0,0.0,0.0,0.0,0,0.0,0.0,389,195,195,389,09X022,X,2.0,X022,J.H.S. 022 JORDAN L. MOTT,Junior High-Intermediate-Middle,1.0,9.0,9.0,270 EAST 167 STREET,NY,10456,LINDA ROSENBURY,718-681-6850,718-681-6895,"05,06,07,08,SE",BRONX,"270 EAST 167 STREET, NY, 10456","270 E 167th St, Bronx, NY 10456, USA",40.8323844,-73.9142127
09X058,P.S. 058,ELEMENTARY,2.0,2.0,0.0,2,0,0.0,0.0,1.0,0,0.0,0.0,394,197,197,394,09X058,X,2.0,X058,P.S. 058,Elementary,1.0,9.0,9.0,459 EAST 176 STREET,NY,10457,VELMA GUNN,718-583-6866,718-583-6895,"0K,01,02,03,04,05,SE",BRONX,"459 EAST 176 STREET, NY, 10457","459 E 176th St, Bronx, NY 10457, USA",40.8461805,-73.8988335
09X088,P.S. X088 - S. Silverstein Little Sparrow School,EARLY CHILDHOOD,0.2,0.2,0.0,0,0,0.2,0.0,0.0,0,0.2,0.0,123,123,123,123,09X088,X,2.0,X088,P.S. X088 - S. SILVERSTEIN LITTLE SCHOOL,Elementary,1.0,9.0,9.0,1340 SHERIDAN AVENUE,NY,10456,MELINDA HYER,718-681-6220,718-681-6224,"0K,01,02,03,SE",BRONX,"1340 SHERIDAN AVENUE, NY, 10456","1340 Sheridan Ave, Bronx, NY 10456, USA",40.8370256,-73.9135238
09X170,P.S. 170,EARLY CHILDHOOD,1.0,1.0,0.0,1,0,0.0,0.0,0.0,0,0.0,0.0,218,218,218,218,09X170,X,2.0,X170,P.S. 170,Early Childhood,1.0,9.0,9.0,1598 TOWNSEND AVENUE,NY,10452,NANCY RAMOS,718-583-0662,718-583-0685,"0K,01,02,SE",BRONX,"1598 TOWNSEND AVENUE, NY, 10452","1598 Townsend Ave, Bronx, NY 10452, USA",40.8445236,-73.9132748
09X215,Kappa,JUNIOR HIGH-INTERMEDIATE-MIDDLE,1.0,1.0,0.0,1,0,0.0,0.0,0.0,0,0.0,0.0,337,337,337,337,09X215,X,2.0,X215,KAPPA,Junior High-Intermediate-Middle,1.0,9.0,9.0,3630 THIRD AVENUE,NY,10456,SHERI WARREN,718-590-5455,718-681-4266,"05,06,07,08,SE",BRONX,"3630 THIRD AVENUE, NY, 10456","3630 3rd Ave., Bronx, NY 10456, USA",40.8338446,-73.9039243
09X227,Bronx Collegiate Academy,HIGH SCHOOL,3.0,3.0,0.0,3,0,0.0,0.0,1.0,0,0.0,0.0,350,117,117,350,09X227,X,2.0,X227,BRONX EXPEDITIONARY LEARNING HIGH SCHOOL,High school,1.0,9.0,9.0,240 EAST 172 STREET,NY,10457,D White,718-410-4077,718-293-9567,"09,10,11,12,SE",BRONX,"240 EAST 172 STREET, NY, 10457","240 E 172nd St, Bronx, NY 10457, USA",40.8397925,-73.9113057
09X231,Eagle Academy for Young Men,SECONDARY SCHOOL,3.0,3.0,0.0,3,0,0.0,0.0,1.0,0,0.0,0.0,494,165,165,494,09X231,X,2.0,X231,EAGLE ACADEMY FOR YOUNG MEN,High school,1.0,9.0,9.0,4143 THIRD AVENUE,NY,10457,JONATHAN FOY,718-410-4210,718-410-3982,"09,10,11,12,SE",BRONX,"4143 THIRD AVENUE, NY, 10457","4143 3rd Ave., Bronx, NY 10457, USA",40.845289,-73.8972161
09X241,Urban Assembly School for Applied Math and Science,SECONDARY SCHOOL,2.3,2.0,0.3,2,0,0.0,0.3,0.0,0,0.0,0.3,599,266,300,599,09X241,X,2.0,X241,URBAN ASSEMBLY SCHOOL FOR APPLIED MATH AND SCIENCE,Secondary School,1.0,9.0,9.0,1595 BATHGATE AVENUE,NY,10457,KENNETH BAUM,718-466-7800,718-466-7801,"06,07,08,09,10,11,12,SE",BRONX,"1595 BATHGATE AVENUE, NY, 10457","1595 Bathgate Ave, Bronx, NY 10457, USA",40.8394008,-73.9019661
09X250,Eximius College Preparatory Academy: A College Boa,HIGH SCHOOL,3.0,3.0,0.0,3,0,0.0,0.0,1.0,0,0.0,0.0,393,131,131,393,09X250,X,2.0,X250,EXIMIUS COLLEGE PREPARATORY ACADEMY: A COLLEGE BOA,Secondary School,1.0,9.0,9.0,1363 FULTON AVENUE,NY,10456,TAMMY SMITH,718-992-7154,718-590-1081,"08,09,10,11,12,SE",BRONX,"1363 FULTON AVENUE, NY, 10456","1363 Fulton Ave, Bronx, NY 10456, USA",40.8339721,-73.9027472
09X260,Bronx Center for Science and Mathematics,HIGH SCHOOL,3.0,3.0,0.0,3,0,0.0,0.0,1.0,0,0.0,0.0,441,147,147,441,09X260,X,2.0,X260,BRONX CENTER FOR SCIENCE AND MATHEMATICS,High school,1.0,9.0,9.0,1363 FULTON AVENUE,NY,10456,EDWARD TOM,718-992-7089,718-590-1052,"09,10,11,12,SE",BRONX,"1363 FULTON AVENUE, NY, 10456","1363 Fulton Ave, Bronx, NY 10456, USA",40.8339721,-73.9027472
09X303,I.S. X303 Leadership & Community Service,JUNIOR HIGH-INTERMEDIATE-MIDDLE,1.0,1.0,0.0,1,0,0.0,0.0,0.0,0,0.0,0.0,315,315,315,315,09X303,X,2.0,X303,I.S. X303 LEADERSHIP & COMMUNITY SERVICE,Junior High-Intermediate-Middle,1.0,9.0,9.0,1700 MACOMBS ROAD,NY,10453,PATRICIA BENTLEY,718-583-5466,718-583-2463,"06,07,08,SE",BRONX,"1700 MACOMBS ROAD, NY, 10453","1700 Macombs Rd, Bronx, NY 10453, USA",40.8494924,-73.9156962
09X311,Lucero Elementary School,ELEMENTARY,0.7,0.7,0.0,0,0,0.7,0.0,0.2,0,0.0,0.0,359,359,359,359,,,,,,,,,,,,,,,,,,"1425 WALTON AVENUE, Bronx, 10452","1425 Walton Ave, Bronx, NY 10452, USA",40.8403454,-73.91572839999999
09X339,I.S. 339,JUNIOR HIGH-INTERMEDIATE-MIDDLE,1.0,1.0,0.0,1,0,0.0,0.0,0.0,0,0.0,0.0,422,422,422,422,09X339,X,2.0,X339,I.S. 339,Junior High-Intermediate-Middle,1.0,9.0,9.0,1600 WEBSTER AVENUE,NY,10457,JASON LEVY,718-583-6767,718-583-0281,"06,07,08,SE",BRONX,"1600 WEBSTER AVENUE, NY, 10457","1600 Webster Ave, Bronx, NY 10457, USA",40.8404716,-73.9039243
09X361,The Highbridge Green School,JUNIOR HIGH-INTERMEDIATE-MIDDLE,1.0,1.0,0.0,1,0,0.0,0.0,0.0,0,0.0,0.0,380,380,380,380,,,,,,,,,,,,,,,,,,"200 West 167th Street, Bronx, 10452","200 W 167th St, Bronx, NY 10452, USA",40.8380483,-73.9279911
09X365,Academy for Language and Technology,HIGH SCHOOL,2.0,2.0,0.0,2,0,0.0,0.0,1.0,0,0.0,0.0,331,166,166,331,09X365,X,2.0,X365,ACADEMY FOR LANGUAGE AND TECHNOLOGY,High school,1.0,9.0,9.0,1700 MACOMBS ROAD,NY,10453,ARISLEYDA URENA,718-731-0219,718-731-2031,"09,10,11,12",BRONX,"1700 MACOMBS ROAD, NY, 10453","1700 Macombs Rd, Bronx, NY 10453, USA",40.8494924,-73.9156962
09X443,The Family School,ELEMENTARY,2.0,2.0,0.0,2,0,0.0,0.0,0.0,0,0.0,0.0,537,269,269,537,09X443,X,2.0,X443,THE FAMILY SCHOOL,Early Childhood,1.0,9.0,9.0,1116 SHERIDAN AVENUE,NY,10456,PAMELA LEE,718-538-3266,718-538-3364,"0K,01,02,03,SE",BRONX,"1116 SHERIDAN AVENUE, NY, 10456","1116 Sheridan Ave, Bronx, NY 10456, USA",40.8321305,-73.9175656
09X449,Grant Avenue Elementary School,ELEMENTARY,1.0,1.0,0.0,1,0,0.0,0.0,0.0,0,0.0,0.0,427,427,427,427,09X449,X,2.0,X449,GRANT AVENUE ELEMENTARY SCHOOL,Early Childhood,1.0,9.0,9.0,250 EAST 164 STREET,NY,10456,KRISTIN ERAT,718-681-6288,718-681-6687,"0K,01,02,SE",BRONX,"250 EAST 164 STREET, NY, 10456","250 E 164th St, Bronx, NY 10456, USA",40.8280778,-73.91751959999999
09X543,High School for Violin and Dance,HIGH SCHOOL,3.0,3.0,0.0,3,0,0.0,0.0,1.0,0,0.0,0.0,225,75,75,225,09X543,X,2.0,X543,HIGH SCHOOL FOR VIOLIN AND DANCE,High school,1.0,9.0,9.0,1110 BOSTON ROAD,NY,10456,Franklin Sim,718-842-0687,718-589-9849,"09,10,11,12,SE",BRONX,"1110 BOSTON ROAD, NY, 10456","1110 Boston Rd, Bronx, NY 10456, USA",40.8273033,-73.9045097
09X555,Mount Eden Children's Academy,ELEMENTARY,1.0,1.0,0.0,1,0,0.0,0.0,0.0,0,0.0,0.0,429,429,429,429,,,,,,,,,,,,,,,,,,"1501 JEROME AVENUE, Bronx, 10452","1501 Jerome Ave, Bronx, NY 10452, USA",40.8429988,-73.9162336
09X568,Young Women's Leadership School of the Bronx,SECONDARY SCHOOL,2.0,2.0,0.0,2,0,0.0,0.0,0.0,0,0.0,0.0,537,269,269,537,,,,,,,,,,,,,,,,,,"1865 MORRIS AVENUE, Bronx, 10453","1865 Morris Ave, Bronx, NY 10453, USA",40.8485816,-73.9087503
09X594,M.S. 594,JUNIOR HIGH-INTERMEDIATE-MIDDLE,1.0,1.0,0.0,1,0,0.0,0.0,1.0,0,0.0,0.0,252,252,252,252,,,,,,,,,,,,,,,,,,"1000 TELLER AVENUE, Bronx, 10456","1000 Teller Ave, Bronx, NY 10456, USA",40.8279,-73.9141928
10X007,Milton Fein School,ELEMENTARY,1.0,1.0,0.0,1,0,0.0,0.0,0.0,0,0.0,0.0,604,604,604,604,10X007,X,2.0,X007,P.S. 007 KINGSBRIDGE,Elementary,1.0,10.0,10.0,3201 KINGSBRIDGE AVENUE,NY,10463,Frank Patterson,718-796-8695,718-796-7204,"0K,01,02,03,04,05,SE",BRONX,"3201 KINGSBRIDGE AVENUE, NY, 10463","3201 Kingsbridge Ave, Bronx, NY 10463, USA",40.8817779,-73.9059814
10X051,The Bronx STEM and Arts Academy,ELEMENTARY,1.0,1.0,0.0,1,0,0.0,0.0,0.0,0,0.0,0.0,206,206,206,206,10X051,X,2.0,X051,P.S. 051 BRONX NEW SCHOOL,Elementary,1.0,10.0,10.0,3200 JEROME AVENUE,NY,10468,PAUL SMITH,718-584-8772,718-584-8935,"0K,01,02,03,04,05,SE",BRONX,"3200 JEROME AVENUE, NY, 10468","3200 Jerome Ave, Bronx, NY 10468, USA",40.8775135,-73.8868828
10X080,J.H.S. 080 The Mosholu Parkway,JUNIOR HIGH-INTERMEDIATE-MIDDLE,2.3,2.0,0.3,2,0,0.0,0.3,0.0,0,0.0,0.3,641,285,321,641,10X080,X,2.0,X080,J.H.S. 080 THE MOSHOLU PARKWAY,Junior High-Intermediate-Middle,1.0,10.0,10.0,149 EAST MOSHOLU PARKWAY NORTH,NY,10467,Lovey Mazique-Rivera,718-405-6300,718-405-6324,"06,07,08,SE",BRONX,"149 EAST MOSHOLU PARKWAY NORTH, NY, 10467","149 E Mosholu Pkwy N, Bronx, NY 10467, USA",40.8768024,-73.8813704
10X081,P.S. 081 Robert J. Christen,ELEMENTARY,1.4,1.0,0.4,1,0,0.0,0.4,0.0,0,0.0,0.0,765,546,765,765,10X081,X,2.0,X081,P.S. 081 ROBERT J. CHRISTEN,Elementary,1.0,10.0,10.0,5550 RIVERDALE AVENUE,NY,10471,MELODIE MASHEL,718-796-8965,718-796-7242,"0K,01,02,03,04,05,SE",BRONX,"5550 RIVERDALE AVENUE, NY, 10471","5550 Riverdale Ave, Bronx, NY 10471, USA",40.9035441,-73.90481539999999
10X159,P.S. 159 Luis Munoz Marin Biling,ELEMENTARY,1.0,1.0,0.0,1,0,0.0,0.0,0.0,0,0.0,0.0,194,194,194,194,10X159,X,2.0,X159,P.S. 159 LUIS MUNOZ MARIN BILING,Elementary,1.0,10.0,10.0,2315 WASHINGTON AVENUE,NY,10458,LUIS LIZ,718-584-6140,718-584-7794,"0K,01,02,03,04,05,SE",BRONX,"2315 WASHINGTON AVENUE, NY, 10458","2315 Washington Ave, Bronx, NY 10458, USA",40.8555458,-73.89322179999999
10X206,I.S. 206 Ann Mersereau,JUNIOR HIGH-INTERMEDIATE-MIDDLE,1.3,1.0,0.3,1,0,0.0,0.3,1.0,0,0.0,0.3,270,216,270,270,10X206,X,2.0,X206,I.S. 206 ANN MERSEREAU,Junior High-Intermediate-Middle,1.0,10.0,10.0,2280 AQUEDUCT AVENUE,NY,10468,DAVID NEERING,718-584-1570,718-584-7928,"05,06,07,08,SE",BRONX,"2280 AQUEDUCT AVENUE, NY, 10468","2280 Aqueduct Ave, Bronx, NY 10468, USA",40.8595656,-73.9062668
10X209,P.S. 209,EARLY CHILDHOOD,1.0,1.0,0.0,1,0,0.0,0.0,0.0,0,0.0,0.0,274,274,274,274,10X209,X,2.0,X209,P.S. 209,Early Childhood,1.0,10.0,10.0,313 EAST 183RD STREET,NY,10458,Anne Keegan,718-364-0085,718-364-9548,"PK,0K,01,02,SE",BRONX,"313 EAST 183RD STREET, NY, 10458","313 E 183rd St, Bronx, NY 10458, USA",40.8568296,-73.89735590000001
10X213,Bronx Engineering and Technology Academy,HIGH SCHOOL,3.0,3.0,0.0,3,0,0.0,0.0,0.0,0,0.0,0.0,395,132,132,395,10X213,X,2.0,X213,BRONX ENGINEERING AND TECHNOLOGY ACADEMY,High school,1.0,10.0,10.0,99 TERRACE VIEW AVENUE,NY,10463,KARALYNE SPERLING,718-563-6678,718-741-5263,"09,10,11,12,SE",BRONX,"99 TERRACE VIEW AVENUE, NY, 10463","99 Terrace View Ave, Bronx, NY 10463, USA",40.8771585,-73.9126759
10X226,P.S. 226,ELEMENTARY,2.0,2.0,0.0,2,0,0.0,0.0,0.0,0,0.0,0.0,412,206,206,412,10X226,X,2.0,X226,P.S. 226,Elementary,1.0,10.0,10.0,1950 SEDGWICK AVENUE,NY,10453,GLORIA DARDEN,718-583-5560,718-583-5557,"PK,0K,01,02,03,04,SE",BRONX,"1950 SEDGWICK AVENUE, NY, 10453","1950 Sedgwick Ave, Bronx, NY 10453, USA",40.855172,-73.9162336
10X243,West Bronx Academy for the Future,SECONDARY SCHOOL,3.3,3.0,0.3,3,0,0.0,0.3,1.0,0,0.0,0.3,614,189,205,614,10X243,X,2.0,X243,WEST BRONX ACADEMY FOR THE FUTURE,Secondary School,1.0,10.0,10.0,500 EAST FORDHAM ROAD,NY,10458,WILPER MORALES,718-563-7139,718-563-7362,"06,07,08,09,10,11,12,SE",BRONX,"500 EAST FORDHAM ROAD, NY, 10458","500 E Fordham Rd, Bronx, NY 10458, USA",40.8594021,-73.88867429999999
10X244,The New School for Leadership and Journalism,JUNIOR HIGH-INTERMEDIATE-MIDDLE,4.2,4.0,0.2,4,0,0.0,0.2,1.0,0,0.0,0.2,718,171,180,718,10X244,X,2.0,X244,THE NEW SCHOOL FOR LEADERSHIP AND JOURNALISM,Junior High-Intermediate-Middle,1.0,10.0,10.0,120 WEST 231 STREET,NY,10463,DOLORES PETERSON,718-601-2869,718-601-2867,"06,07,08,SE",BRONX,"120 WEST 231 STREET, NY, 10463","120 W 231st St, Bronx, NY 10463, USA",40.8755907,-73.9017195
10X254,I.S. 254,JUNIOR HIGH-INTERMEDIATE-MIDDLE,2.3,2.0,0.3,2,0,0.0,0.3,1.0,0,0.0,0.3,468,208,234,468,10X254,X,2.0,X254,I.S. 254,Junior High-Intermediate-Middle,1.0,10.0,10.0,2452 WASHINGTON AVENUE,NY,10458,WILFORD HEMANS,718-220-8700,718-220-4881,"06,07,08,SE",BRONX,"2452 WASHINGTON AVENUE, NY, 10458","2452 Washington Ave, Bronx, NY 10458, USA",40.8588883,-73.8898494
10X308,Bronx Dance Academy School,JUNIOR HIGH-INTERMEDIATE-MIDDLE,1.3,1.0,0.3,1,0,0.0,0.3,0.0,0,0.0,0.3,261,209,261,261,10X308,X,2.0,X308,BRONX DANCE ACADEMY SCHOOL,Junior High-Intermediate-Middle,1.0,10.0,10.0,3617 BAINBRIDGE AVENUE,NY,10467,SANDRA SANCHEZ,718-515-0410,718-515-0345,"06,07,08,SE",BRONX,"3617 BAINBRIDGE AVENUE, NY, 10467","3617 Bainbridge Ave, Bronx, NY 10467, USA",40.8854146,-73.8780629
10X315,P.S. 315 Lab School,K-8,3.0,3.0,0.0,3,0,0.0,0.0,0.0,0,0.0,0.0,228,76,76,228,10X315,X,2.0,X315,P.S. 315 LAB SCHOOL,K-8,1.0,10.0,10.0,2246 JEROME AVENUE,NY,10453,Elsie Cardona-Berardinelli,718-584-7441,718-584-7433,"0K,01,02,03,04,05,06,07,08,SE",BRONX,"2246 JEROME AVENUE, NY, 10453","2246 Jerome Ave, Bronx, NY 10453, USA",40.858011,-73.9037405
10X319,Providing Urban Learners Success In Education High,HIGH SCHOOL,1.0,1.0,0.0,1,0,0.0,0.0,0.0,0,0.0,0.0,237,237,237,237,10X319,X,2.0,X319,PROVIDING URBAN LEARNERS SUCCESS IN EDUCATION HIGH,High school,1.0,10.0,10.0,560 EAST 179 STREET,NY,10457,CAROL WIGGINS,718-294-0230,718-584-7809,"09,10,11,12,SE",BRONX,"560 EAST 179 STREET, NY, 10457","560 E 179th St, Bronx, NY 10457, USA",40.8483569,-73.8935893
10X331,The Bronx School of Young Leaders,JUNIOR HIGH-INTERMEDIATE-MIDDLE,3.3,3.0,0.3,3,0,0.0,0.3,1.0,0,0.0,0.3,441,136,147,441,10X331,X,2.0,X331,THE BRONX SCHOOL OF SCIENCE INQUIRY AND INVESTIGAT,Junior High-Intermediate-Middle,1.0,10.0,10.0,40 WEST TREMONT AVENUE,NY,10453,SERAPHA CRUZ,718-583-4146,718-583-4292,"06,07,08,SE",BRONX,"40 WEST TREMONT AVENUE, NY, 10453","40 W Tremont Ave, Bronx, NY 10453, USA",40.8513941,-73.9108139
10X342,International School for Liberal Arts,SECONDARY SCHOOL,3.0,3.0,0.0,3,0,0.0,0.0,1.0,0,0.0,0.0,508,169,169,508,10X342,X,2.0,X342,INTERNATIONAL SCHOOL FOR LIBERAL ARTS,Secondary School,1.0,10.0,10.0,2780 RESERVOIR AVENUE,NY,10468,Migdalia Carrillo,718-329-8570,718-329-8572,"06,07,08,09,10,11,12,SE",BRONX,"2780 RESERVOIR AVENUE, NY, 10468","2780 Reservoir Ave, Bronx, NY 10468, USA",40.8704171,-73.8969711
10X344,Ampark Neighborhood,ELEMENTARY,1.4,1.0,0.4,1,0,0.0,0.4,0.0,0,0.0,0.0,388,277,388,388,10X344,X,2.0,X344,AMPARK NEIGHBORHOOD,Elementary,1.0,10.0,10.0,3961 HILLMAN AVENUE,NY,10463,ELIZABETH LOPEZ-TOWEY,718-548-3451,,"0K,01,02,03,04,05",BRONX,"3961 HILLMAN AVENUE, NY, 10463","3961 Hillman Ave, Bronx, NY 10463, USA",40.8830979,-73.8914763
10X360,P.S. 360,ELEMENTARY,2.0,2.0,0.0,2,0,0.0,0.0,0.0,0,0.0,0.0,389,195,195,389,10X360,X,2.0,X360,P.S. 360,Elementary,1.0,10.0,10.0,2880 KINGSBRIDGE TERRACE,NY,10463,Nancy Rodriguez-Lewis,718-548-1511,718-548-1536,"PK,0K,01,02,03,04,05,06,SE",BRONX,"2880 KINGSBRIDGE TERRACE, NY, 10463","2880 Kingsbridge Terrace, Bronx, NY 10463, USA",40.8747352,-73.90224359999999
10X368,In-Tech Academy (M.S. / High School 368),SECONDARY SCHOOL,4.0,4.0,0.0,4,0,0.0,0.0,0.0,0,0.0,0.0,1000,250,250,1000,10X368,X,2.0,X368,IN-TECH ACADEMY (M.S. / HIGH SCHOOL 368),Secondary School,1.0,10.0,10.0,2975 TIBBETT AVENUE,NY,10463,Yvette Allen,718-432-4300,718-432-4310,"06,07,08,09,10,11,12,SE",BRONX,"2975 TIBBETT AVENUE, NY, 10463","2975 Tibbett Ave, Bronx, NY 10463, USA",40.8790763,-73.91129529999999
10X374,Knowledge and Power Preparatory Academy Internatio,HIGH SCHOOL,3.2,3.0,0.2,3,0,0.0,0.2,0.0,0,0.0,0.2,421,132,140,421,10X374,X,2.0,X374,KNOWLEDGE AND POWER PREPARATORY ACADEMY INTERNATIO,High school,1.0,10.0,10.0,500 EAST FORDHAM ROAD,NY,10458,PANOREA PANAGIOSOULIS,718-933-1247,718-933-1568,"09,10,11,12,SE",BRONX,"500 EAST FORDHAM ROAD, NY, 10458","500 E Fordham Rd, Bronx, NY 10458, USA",40.8594021,-73.88867429999999
10X382,"Elementary School for Math, Science, and Technolog",ELEMENTARY,1.0,1.0,0.0,1,0,0.0,0.0,0.0,0,0.0,0.0,278,278,278,278,10X382,X,2.0,X382,"ELEMENTARY SCHOOL FOR MATH, SCIENCE, AND TECHNOLOG",Elementary,1.0,10.0,10.0,125 EAST 181 STREET,NY,10453,Avon Connell-Cowell,718-933-8061,718-933-8157,"0K,01,02,03,04,SE",BRONX,"125 EAST 181 STREET, NY, 10453","125 E 181st St, Bronx, NY 10453, USA",40.8556664,-73.90323529999999
10X386,School for Environmental Citizenship,ELEMENTARY,1.0,1.0,0.0,1,0,0.0,0.0,0.0,0,0.0,0.0,578,578,578,578,10X386,X,2.0,X386,SCHOOL FOR ENVIRONMENTAL CITIZENSHIP,Elementary,1.0,10.0,10.0,125 EAST 181 STREET,NY,10453,HEATHER DAWE,718-563-3292,718-563-3453,"PK,0K,01,02,03,04,SE",BRONX,"125 EAST 181 STREET, NY, 10453","125 E 181st St, Bronx, NY 10453, USA",40.8556664,-73.90323529999999
10X396,P.S. 396,ELEMENTARY,3.0,3.0,0.0,3,0,0.0,0.0,1.0,0,0.0,0.0,294,98,98,294,10X396,X,2.0,X396,P.S. 396,Elementary,1.0,10.0,10.0,1930 ANDREWS AVENUE,NY,10453,NICOLE TINE,718-294-0862,718-583-5556,"PK,0K,01,02,03,04,SE",BRONX,"1930 ANDREWS AVENUE, NY, 10453","1930 Andrews Ave S, Bronx, NY 10453, USA",40.854392,-73.9129267
10X434,Belmont Preparatory High School,HIGH SCHOOL,3.3,3.0,0.3,3,0,0.0,0.3,0.0,0,0.0,0.3,389,120,130,389,10X434,X,2.0,X434,BELMONT PREPARATORY HIGH SCHOOL,High school,1.0,10.0,10.0,500 EAST FORDHAM ROAD,NY,10458,STEPHEN JOSEPH GUMBS,718-733-4559,718-295-3655,"09,10,11,12,SE",BRONX,"500 EAST FORDHAM ROAD, NY, 10458","500 E Fordham Rd, Bronx, NY 10458, USA",40.8594021,-73.88867429999999
10X438,Fordham Leadership Academy,HIGH SCHOOL,2.2,2.0,0.2,2,0,0.0,0.2,0.0,0,0.0,0.2,373,170,187,373,10X438,X,2.0,X438,FORDHAM LEADERSHIP ACADEMY FOR BUSINESS AND TECHNO,High school,1.0,10.0,10.0,500 EAST FORDHAM ROAD,NY,10458,RICHARD BOST,718-733-5024,718-295-3674,"09,10,11,12,SE",BRONX,"500 EAST FORDHAM ROAD, NY, 10458","500 E Fordham Rd, Bronx, NY 10458, USA",40.8594021,-73.88867429999999
10X439,Bronx High School for Law and Community Service,HIGH SCHOOL,4.2,4.0,0.2,4,0,0.0,0.2,1.0,0,0.0,0.2,406,97,102,406,10X439,X,2.0,X439,BRONX HIGH SCHOOL FOR LAW AND COMMUNITY SERVICE,High school,1.0,10.0,10.0,500 EAST FORDHAM ROAD,NY,10458,Michael Barakat,718-733-5274,718-295-3631,"09,10,11,12,SE",BRONX,"500 EAST FORDHAM ROAD, NY, 10458","500 E Fordham Rd, Bronx, NY 10458, USA",40.8594021,-73.88867429999999
10X442,"Celia Cruz Bronx High School of Music, The",HIGH SCHOOL,2.0,2.0,0.0,2,0,0.0,0.0,0.0,0,0.0,0.0,441,221,221,441,10X442,X,2.0,X442,"CELIA CRUZ BRONX HIGH SCHOOL OF MUSIC, THE",High school,1.0,10.0,10.0,2780 RESERVOIR AVENUE,NY,10468,"William Rodriguez, Ed.D.",718-329-8550,718-329-8559,"09,10,11,12",BRONX,"2780 RESERVOIR AVENUE, NY, 10468","2780 Reservoir Ave, Bronx, NY 10468, USA",40.8704171,-73.8969711
10X447,Creston Academy,JUNIOR HIGH-INTERMEDIATE-MIDDLE,2.3,2.0,0.3,2,0,0.0,0.3,0.0,0,0.0,0.3,455,202,228,455,10X447,X,2.0,X447,CRESTON ACADEMY,Elementary,1.0,10.0,10.0,125 EAST 181 STREET,NY,10453,PAMELA EDWARDS,718-367-5035,718-367-5176,"06,07,SE",BRONX,"125 EAST 181 STREET, NY, 10453","125 E 181st St, Bronx, NY 10453, USA",40.8556664,-73.90323529999999
10X477,Marble Hill High School for International Studies,HIGH SCHOOL,1.0,1.0,0.0,1,0,0.0,0.0,1.0,0,0.0,0.0,442,442,442,442,10X477,X,2.0,X477,MARBLE HILL HIGH SCHOOL FOR INTERNATIONAL STUDIES,High school,1.0,10.0,10.0,99 TERRACE VIEW AVENUE,NY,10463,KIRSTEN LARSON,718-561-0973,718-561-5612,"09,10,11,12,SE",BRONX,"99 TERRACE VIEW AVENUE, NY, 10463","99 Terrace View Ave, Bronx, NY 10463, USA",40.8771585,-73.9126759
10X546,Bronx Theatre High School,HIGH SCHOOL,2.0,2.0,0.0,2,0,0.0,0.0,0.0,0,0.0,0.0,328,164,164,328,10X546,X,2.0,X546,BRONX THEATRE HIGH SCHOOL,High school,1.0,10.0,10.0,99 TERRACE VIEW AVENUE,NY,10463,DEBORAH EFFINGER,718-329-2902,718-329-0433,"09,10,11,12,SE",BRONX,"99 TERRACE VIEW AVENUE, NY, 10463","99 Terrace View Ave, Bronx, NY 10463, USA",40.8771585,-73.9126759
10X549,Discovery High School,HIGH SCHOOL,2.0,2.0,0.0,2,0,0.0,0.0,0.0,0,0.0,0.0,449,225,225,449,10X549,X,2.0,X549,DISCOVERY HIGH SCHOOL,High school,1.0,10.0,10.0,2780 RESERVOIR AVENUE,NY,10468,ROLANDO RIVERA,718-733-3872,718-733-3621,"09,10,11,12,SE",BRONX,"2780 RESERVOIR AVENUE, NY, 10468","2780 Reservoir Ave, Bronx, NY 10468, USA",40.8704171,-73.8969711
10X696,High School of American Studies at Lehman College,HIGH SCHOOL,2.3,2.0,0.3,2,0,0.0,0.3,0.0,0,0.0,0.3,382,170,191,382,10X696,X,2.0,X696,HIGH SCHOOL OF AMERICAN STUDIES AT LEHMAN COLLEGE,High school,1.0,10.0,10.0,2925 GOULDEN AVENUE,NY,10468,Mr. Alessandro Weiss,718-329-2144,718-329-0792,"09,10,11,12",BRONX,"2925 GOULDEN AVENUE, NY, 10468","2925 Goulden Ave, Bronx, NY 10468, USA",40.8746796,-73.8950763
11X108,P.S. 108 Philip J. Abinanti,ELEMENTARY,1.0,1.0,0.0,1,0,0.0,0.0,0.0,0,0.0,0.0,570,570,570,570,11X108,X,2.0,X108,P.S. 108 PHILIP J. ABINANTI,Elementary,1.0,11.0,11.0,1166 NEILL AVENUE,NY,10461,CHARLES SPERRAZZA,718-863-9829,718-828-1712,"0K,01,02,03,04,05,SE",BRONX,"1166 NEILL AVENUE, NY, 10461","1166 Neill Ave, Bronx, NY 10461, USA",40.854615,-73.8527953
11X112,P.S. 112 Bronxwood,ELEMENTARY,2.0,2.0,0.0,2,0,0.0,0.0,0.0,0,0.0,0.0,399,200,200,399,11X112,X,2.0,X112,P.S. 112 BRONXWOOD,Elementary,1.0,11.0,11.0,1925 SCHIEFFELIN AVENUE,NY,10466,SUSAN BARNES,718-654-6377,718-654-7931,"PK,0K,01,02,03,04,05,SE",BRONX,"1925 SCHIEFFELIN AVENUE, NY, 10466","1925 Schieffelin Ave, Bronx, NY 10466, USA",40.8847649,-73.8439899
11X175,P.S. 175 City Island,K-8,1.4,1.4,0.0,1,0,0.4,0.0,0.0,0,0.4,0.0,300,214,214,300,11X175,X,2.0,X175,P.S. 175 CITY ISLAND,K-8,1.0,11.0,11.0,200 CITY ISLAND AVENUE,NY,10464,Amy Lipson,718-885-1093,718-885-2315,"0K,01,02,03,04,05,06,07,08,SE",BRONX,"200 CITY ISLAND AVENUE, NY, 10464","200 City Island Ave, Bronx, NY 10464, USA",40.84379,-73.7846911
11X180,M.S. 180 Dr. Daniel Hale Williams,JUNIOR HIGH-INTERMEDIATE-MIDDLE,3.0,3.0,0.0,3,0,0.0,0.0,0.0,0,0.0,0.0,1045,348,348,1045,11X180,X,2.0,X180,I.S. 180 DANIEL HALE WILLIAMS,Junior High-Intermediate-Middle,1.0,11.0,11.0,700 BAYCHESTER AVENUE,NY,10475,FRANK UZZO,718-904-5650,718-904-5655,"06,07,08,SE",BRONX,"700 BAYCHESTER AVENUE, NY, 10475","700 Baychester Ave, Bronx, NY 10475, USA",40.8732692,-73.831706
11X249,Bronx Health Sciences High School,HIGH SCHOOL,3.3,3.0,0.3,3,0,0.0,0.3,1.0,0,0.0,0.3,287,88,96,287,11X249,X,2.0,X249,BRONX HEALTH SCIENCES HIGH SCHOOL,High school,1.0,11.0,11.0,750 BAYCHESTER AVENUE,NY,10475,MIRIAM RIVAS,718-862-4406,718-862-4410,"09,10,11,12,SE",BRONX,"750 BAYCHESTER AVENUE, NY, 10475","750 Baychester Ave, Bronx, NY 10475, USA",40.8741149,-73.83285459999999
11X253,Bronx High School for Writing and Communication Ar,HIGH SCHOOL,3.0,3.0,0.0,3,0,0.0,0.0,0.0,0,0.0,0.0,301,100,100,301,11X253,X,2.0,X253,BRONX HIGH SCHOOL FOR WRITING AND COMMUNICATION AR,High school,1.0,11.0,11.0,800 EAST GUN HILL ROAD,NY,10467,STEVEN CHERNIGOFF,718-944-5660,718-944-5690,"09,10,11,12,SE",BRONX,"800 EAST GUN HILL ROAD, NY, 10467","800 E Gun Hill Rd, Bronx, NY 10467, USA",40.8751267,-73.8617246
11X288,Collegiate Institute for Math and Science,HIGH SCHOOL,3.3,3.0,0.3,3,0,0.0,0.3,0.0,0,0.0,0.3,569,175,190,569,11X288,X,2.0,X288,COLLEGIATE INSTITUTE FOR MATH AND SCIENCE,High school,1.0,11.0,11.0,925 ASTOR AVENUE,NY,10469,ESTELLE HANS,718-944-3635,718-652-3525,"09,10,11,12,SE",BRONX,"925 ASTOR AVENUE, NY, 10469","925 Astor Ave, Bronx, NY 10469, USA",40.8602833,-73.8603759
11X290,Bronx Academy of Health Careers,HIGH SCHOOL,2.0,2.0,0.0,2,0,0.0,0.0,0.0,0,0.0,0.0,359,180,180,359,11X290,X,2.0,X290,BRONX ACADEMY OF HEALTH CAREERS,High school,1.0,11.0,11.0,800 EAST GUN HILL ROAD,NY,10467,MARVIA LINDSAY,718-696-3340,718-696-3380,"09,10,11,12,SE",BRONX,"800 EAST GUN HILL ROAD, NY, 10467","800 E Gun Hill Rd, Bronx, NY 10467, USA",40.8751267,-73.8617246
11X299,Astor Collegiate Academy,HIGH SCHOOL,2.3,2.0,0.3,2,0,0.0,0.3,0.0,0,0.0,0.3,483,215,242,483,11X299,X,2.0,X299,ASTOR COLLEGIATE ACADEMY,High school,1.0,11.0,11.0,925 ASTOR AVENUE,NY,10469,Sandra Burgos,718-944-3419,718-944-3638,"09,10,11,12,SE",BRONX,"925 ASTOR AVENUE, NY, 10469","925 Astor Ave, Bronx, NY 10469, USA",40.8602833,-73.8603759
11X326,Bronx Green Middle School,JUNIOR HIGH-INTERMEDIATE-MIDDLE,1.0,1.0,0.0,1,0,0.0,0.0,0.0,0,0.0,0.0,415,415,415,415,11X326,X,2.0,X326,BRONX GREEN MIDDLE SCHOOL,Junior High-Intermediate-Middle,1.0,11.0,11.0,2441 WALLACE AVENUE,NY,10467,Jeremy Kabinoff,718-325-6593,718-325-3625,"06,07,08,SE",BRONX,"2441 WALLACE AVENUE, NY, 10467","2441 Wallace Ave, Bronx, NY 10467, USA",40.8624813,-73.8649701
11X357,Young Voices Academy of the Bronx,ELEMENTARY,1.0,1.0,0.0,1,0,0.0,0.0,0.0,0,0.0,0.0,430,430,430,430,,,,,,,,,,,,,,,,,,"800 LYDIG AVENUE, Bronx, 10462","800 Lydig Ave, Bronx, NY 10462, USA",40.854327,-73.8636587
11X370,Leaders of Tomorrow,JUNIOR HIGH-INTERMEDIATE-MIDDLE,2.0,2.0,0.0,2,0,0.0,0.0,0.0,0,0.0,0.0,463,232,232,463,11X370,X,2.0,X370,SCHOOL OF DIPLOMACY,Junior High-Intermediate-Middle,1.0,11.0,11.0,3710 BARNES AVENUE,NY,10467,JOHN SCALICE,718-994-1028,,"06,07,08,SE",BRONX,"3710 BARNES AVENUE, NY, 10467","3710 Barnes Ave, Bronx, NY 10467, USA",40.8808122,-73.8605855
11X468,Pelham Academy of Academics and Community Engageme,JUNIOR HIGH-INTERMEDIATE-MIDDLE,2.0,2.0,0.0,2,0,0.0,0.0,1.0,0,0.0,0.0,351,176,176,351,11X468,X,2.0,X468,PELHAM ACADEMY OF ACADEMICS AND COMMUNITY ENGAGEME,Elementary,1.0,11.0,11.0,2441 WALLACE AVENUE,NY,10467,ANTHONY RIVERA,718-881-3136,718-881-3413,"06,07,SE",BRONX,"2441 WALLACE AVENUE, NY, 10467","2441 Wallace Ave, Bronx, NY 10467, USA",40.8624813,-73.8649701
11X481,The STEAM Bridge School,ELEMENTARY,0.6,0.6,0.0,0,0,0.6,0.0,0.0,0,0.6,0.0,267,267,267,267,,,,,,,,,,,,,,,,,,"1684 WHITE PLAINS ROAD, Bronx, 10462","1684 White Plains Rd, Bronx, NY 10462, USA",40.8435269,-73.8651998
11X498,P.S./M.S. 11X498 - Van Nest Academy,K-8,2.0,2.0,0.0,2,0,0.0,0.0,0.0,0,0.0,0.0,656,328,328,656,11X498,X,2.0,X498,VAN NEST ACADEMY,K-8,1.0,11.0,11.0,1640 BRONXDALE AVE,NY,10462,Carol Gilligan,718-409-3001,718-409-3002,"0K,01,06,SE",BRONX,"1640 BRONXDALE AVE, NY, 10462","1640 Bronxdale Ave, Bronx, NY 10462, USA",40.8449981,-73.8579869
11X513,New World High School,HIGH SCHOOL,2.3,2.0,0.3,2,0,0.0,0.3,0.0,0,0.0,0.3,365,162,183,365,11X513,X,2.0,X513,NEW WORLD HIGH SCHOOL,High school,1.0,11.0,11.0,921 EAST 228TH STREET,NY,10466,FAUSTO SALAZAR,718-696-3800,718-696-3801,"09,10,11,12",BRONX,"921 EAST 228TH STREET, NY, 10466","921 E 228th St, Bronx, NY 10466, USA",40.8880644,-73.8527494
11X514,The Bronxwood Preparatory Academy,HIGH SCHOOL,2.3,2.0,0.3,2,0,0.0,0.3,0.0,0,0.0,0.3,354,157,177,354,11X514,X,2.0,X514,SPORTS PROFESSIONS HIGH SCHOOL,High school,1.0,11.0,11.0,921 EAST 228TH STREET,NY,10466,JANET GALLARDO,718-696-3820,718-696-3821,"09,10,11,12,SE",BRONX,"921 EAST 228TH STREET, NY, 10466","921 E 228th St, Bronx, NY 10466, USA",40.8880644,-73.8527494
11X532,Baychester Middle School,JUNIOR HIGH-INTERMEDIATE-MIDDLE,2.0,2.0,0.0,2,0,0.0,0.0,0.0,0,0.0,0.0,288,144,144,288,11X532,X,2.0,X532,Baychester Middle School,Junior High-Intermediate-Middle,1.0,11.0,11.0,3750 BAYCHESTER AVENUE,NY,10466,Shawn Mangar,718-935-3577,,"06,07,08,SE",BRONX,"3750 BAYCHESTER AVENUE, NY, 10466","3750 Baychester Ave, Bronx, NY 10466, USA",40.8861491,-73.8404879
12X061,P.S. 061 Francisco Oller,ELEMENTARY,1.0,1.0,0.0,1,0,0.0,0.0,0.0,0,0.0,0.0,264,264,264,264,12X061,X,2.0,X061,P.S. 061 FRANCISCO OLLER,Elementary,1.0,12.0,12.0,1550 CROTONA PARK EAST,NY,10460,PATRICIA QUIGLEY,718-542-7230,718-589-7361,"PK,0K,01,02,03,04,05,SE",BRONX,"1550 CROTONA PARK EAST, NY, 10460","1550 Crotona Park E, Bronx, NY 10460, USA",40.8363733,-73.8927625
12X211,P.S. 211,K-8,1.0,1.0,0.0,1,0,0.0,0.0,0.0,0,0.0,0.0,512,512,512,512,12X211,X,2.0,X211,P.S. 211,K-8,1.0,12.0,12.0,1919 PROSPECT AVENUE,NY,10457,Betty Gonzalez-Soto,718-901-0436,718-901-4681,"PK,0K,01,02,03,04,05,06,07,08,SE",BRONX,"1919 PROSPECT AVENUE, NY, 10457","1919 Prospect Ave, Bronx, NY 10457, USA",40.8437691,-73.8903279
12X217,School of Performing Arts,JUNIOR HIGH-INTERMEDIATE-MIDDLE,1.0,1.0,0.0,1,0,0.0,0.0,0.0,0,0.0,0.0,343,343,343,343,12X217,X,2.0,X217,SCHOOL OF PERFORMING ARTS,Junior High-Intermediate-Middle,1.0,12.0,12.0,977 FOX STREET,NY,10459,SETH LITT,718-589-4844,718-589-7998,"06,07,08,SE",BRONX,"977 FOX STREET, NY, 10459","977 Fox St, Bronx, NY 10459, USA",40.8220835,-73.8940382
12X242,Mott Hall V,SECONDARY SCHOOL,2.0,2.0,0.0,2,0,0.0,0.0,1.0,0,0.0,0.0,662,331,331,662,12X242,X,2.0,X242,MOTT HALL V,Junior High-Intermediate-Middle,1.0,12.0,12.0,1551 EAST 172ND STREET,NY,10472,PETER OROSZLANY,718-620-8160,718-620-8161,"06,07,08,09,SE",BRONX,"1551 EAST 172ND STREET, NY, 10472","1551 E 172nd St, Bronx, NY 10472, USA",40.8318874,-73.8772819
12X267,Bronx Latin,SECONDARY SCHOOL,3.0,3.0,0.0,3,0,0.0,0.0,0.0,0,0.0,0.0,531,177,177,531,12X267,X,2.0,X267,BRONX LATIN,Secondary School,1.0,12.0,12.0,800 HOME STREET,NY,10456,LETICIA PINEIRO,718-991-6349,718-991-6627,"06,07,08,09,10,11,12,SE",BRONX,"800 HOME STREET, NY, 10456","800 Home St, Bronx, NY 10456, USA",40.8273875,-73.9008013
12X271,East Bronx Academy for the Future,SECONDARY SCHOOL,4.0,4.0,0.0,4,0,0.0,0.0,0.0,0,0.0,0.0,647,162,162,647,12X271,X,2.0,X271,EAST BRONX ACADEMY FOR THE FUTURE,Secondary School,1.0,12.0,12.0,1716 SOUTHERN BOULEVARD,NY,10460,SARAH SCROGIN,718-861-8641,718-861-8634,"06,07,08,09,10,11,12,SE",BRONX,"1716 SOUTHERN BOULEVARD, NY, 10460","1716 Southern Blvd, Bronx, NY 10460, USA",40.8368071,-73.8877096
12X316,Kappa III,JUNIOR HIGH-INTERMEDIATE-MIDDLE,3.0,3.0,0.0,3,0,0.0,0.0,0.0,0,0.0,0.0,363,121,121,363,12X316,X,2.0,X316,KAPPA III,Junior High-Intermediate-Middle,1.0,12.0,12.0,2055 MAPES AVENUE,NY,10460,ELISA ALVAREZ,718-561-3580,718-561-3719,"06,07,08,SE",BRONX,"2055 MAPES AVENUE, NY, 10460","2055 Mapes Ave, Bronx, NY 10460, USA",40.8460475,-73.88632179999999
12X383,Emolior Academy,JUNIOR HIGH-INTERMEDIATE-MIDDLE,1.0,1.0,0.0,1,0,0.0,0.0,1.0,0,0.0,0.0,349,349,349,349,12X383,X,2.0,X383,EMOLIOR ACADEMY,Junior High-Intermediate-Middle,1.0,12.0,12.0,1970 WEST FARMS ROAD,NY,10460,DERICK SPAULDING,718-842-2670,718-842-2857,"06,07,08,SE",BRONX,"1970 WEST FARMS ROAD, NY, 10460","1970 W Farms Rd, Bronx, NY 10460, USA",40.83941,-73.8801376
12X458,Samara Community School,ELEMENTARY,1.0,1.0,0.0,1,0,0.0,0.0,0.0,0,0.0,0.0,287,287,287,287,,,,,,,,,,,,,,,,,,"1550 VYSE AVENUE, Bronx, 10460","1550 Vyse Ave, Bronx, NY 10460, USA",40.8342488,-73.88715119999999
12X478,The Cinema School,HIGH SCHOOL,2.0,2.0,0.0,2,0,0.0,0.0,0.0,0,0.0,0.0,355,178,178,355,12X478,X,2.0,X478,THE CINEMA SCHOOL,High school,1.0,12.0,12.0,1551 EAST 172ND STREET,NY,10472,Rex Bobbish,718-620-2560,718-620-2561,"09,10",BRONX,"1551 EAST 172ND STREET, NY, 10472","1551 E 172nd St, Bronx, NY 10472, USA",40.8318874,-73.8772819
12X536,P.S. 536,ELEMENTARY,2.0,2.0,0.0,2,0,0.0,0.0,0.0,0,0.0,0.0,390,195,195,390,12X536,X,2.0,X536,PS 536,Elementary,1.0,12.0,12.0,1827 ARCHER STREET,NY,10460,Sasha Medina,718-935-3605,,"0K,01,02,03,04,05,SE",BRONX,"1827 ARCHER STREET, NY, 10460","1827 Archer St, Bronx, NY 10460, USA",40.8380718,-73.865843
12X550,High School of World Cultures,HIGH SCHOOL,4.0,4.0,0.0,4,0,0.0,0.0,2.0,0,0.0,0.0,421,105,105,421,12X550,X,2.0,X550,HIGH SCHOOL OF WORLD CULTURES,High school,1.0,12.0,12.0,1300 BOYNTON AVENUE,NY,10472,RAMON NAMNUN,718-860-8120,718-893-7152,"09,10,11,12",BRONX,"1300 BOYNTON AVENUE, NY, 10472","1300 Boynton Ave, Bronx, NY 10472, USA",40.8325896,-73.8784878
12X684,Wings Academy,HIGH SCHOOL,2.0,2.0,0.0,2,0,0.0,0.0,0.0,0,0.0,0.0,394,197,197,394,12X684,X,2.0,X684,WINGS ACADEMY,High school,1.0,12.0,12.0,1122 EAST 180 STREET,NY,10460,WAYNE COX,718-597-1751,718-931-8366,"09,10,11,12,SE",BRONX,"1122 EAST 180 STREET, NY, 10460","1122 E 180th St, Bronx, NY 10460, USA",40.8413652,-73.8752636
12X691,Bronx Little School,ELEMENTARY,1.0,1.0,0.0,1,0,0.0,0.0,0.0,0,0.0,0.0,318,318,318,318,12X691,X,2.0,X691,BRONX LITTLE SCHOOL,Elementary,1.0,12.0,12.0,1827 ARCHER STREET,NY,10460,JANICE GORDON,718-792-2650,718-792-4149,"PK,0K,01,02,03,04,05,SE",BRONX,"1827 ARCHER STREET, NY, 10460","1827 Archer St, Bronx, NY 10460, USA",40.8380718,-73.865843
13K003,P.S. 003 The Bedford Village,ELEMENTARY,1.0,1.0,0.0,1,0,0.0,0.0,0.0,0,0.0,0.0,302,302,302,302,13K003,K,2.0,K003,P.S. 003 THE BEDFORD VILLAGE,Elementary,1.0,13.0,13.0,50 JEFFERSON AVENUE,NY,11216,KRISTINA BEECHER,718-622-2960,718-623-3193,"PK,0K,01,02,03,04,05,SE",BROOKLYN,"50 JEFFERSON AVENUE, NY, 11216","50 Jefferson Ave, Brooklyn, NY 11216, USA",40.6823893,-73.9553153
13K044,P.S. 044 Marcus Garvey,ELEMENTARY,0.4,0.4,0.0,0,0,0.4,0.0,0.0,0,0.4,0.0,124,124,124,124,13K044,K,2.0,K044,P.S. 044 MARCUS GARVEY,Elementary,1.0,13.0,13.0,432 MONROE STREET,NY,11221,VALERIE TAYLOR,718-834-6939,718-574-8501,"PK,0K,01,02,03,04,05,SE",BROOKLYN,"432 MONROE STREET, NY, 11221","A COMMUNITY OF LIFELONG LEARNERS, 432 Monroe St, Brooklyn, NY 11221, USA",40.68628830000001,-73.940896
13K054,P.S. 054 Samuel C. Barnes,ELEMENTARY,0.4,0.4,0.0,0,0,0.4,0.0,0.0,0,0.4,0.0,202,202,202,202,13K054,K,2.0,K054,P.S. 054 SAMUEL C. BARNES,Elementary,1.0,13.0,13.0,195 SANFORD STREET,NY,11205,LORNA KHAN,718-834-6752,718-852-8129,"PK,0K,01,02,03,04,05,SE",BROOKLYN,"195 SANFORD STREET, NY, 11205","195 Sanford St, Brooklyn, NY 11205, USA",40.6926096,-73.9527438
13K067,P.S. 067 Charles A. Dorsey,ELEMENTARY,1.0,1.0,0.0,1,0,0.0,0.0,0.0,0,0.0,0.0,222,222,222,222,13K067,K,2.0,K067,P.S. 067 CHARLES A. DORSEY,Elementary,1.0,13.0,13.0,51 SAINT EDWARDS STREET,NY,11205,CORINNE SEABROOK,718-834-6756,718-834-6719,"PK,0K,01,02,03,04,05,SE",BROOKLYN,"51 SAINT EDWARDS STREET, NY, 11205","51 St Edwards St, Brooklyn, NY 11205, USA",40.6951863,-73.97767689999999
13K093,P.S. 093 William H. Prescott,ELEMENTARY,1.0,1.0,0.0,1,0,0.0,0.0,0.0,0,0.0,0.0,185,185,185,185,13K093,K,2.0,K093,P.S. 093 WILLIAM H. PRESCOTT,Elementary,1.0,13.0,13.0,31 NEW YORK AVENUE,NY,11216,SANDRA PHILIP,718-604-7363,718-771-1369,"PK,0K,01,02,03,04,05,SE",BROOKLYN,"31 NEW YORK AVENUE, NY, 11216","31 New York Ave, Brooklyn, NY 11216, USA",40.6789776,-73.9465065
13K113,M.S. 113 Ronald Edmonds Learning Center,JUNIOR HIGH-INTERMEDIATE-MIDDLE,1.2,1.0,0.2,1,0,0.0,0.2,0.0,0,0.0,0.2,333,277,333,333,13K113,K,2.0,K113,M.S. 113 RONALD EDMONDS LEARNING CENTER,Junior High-Intermediate-Middle,1.0,13.0,13.0,300 ADELPHI STREET,NY,11205,Dawnique Daughtry,718-834-6734,718-596-2802,"06,07,08,SE",BROOKLYN,"300 ADELPHI STREET, NY, 11205","300 Adelphi St, Brooklyn, NY 11205, USA",40.6888586,-73.971716
13K133,P.S. 133 William A. Butler,ELEMENTARY,1.0,1.0,0.0,1,0,0.0,0.0,0.0,0,0.0,0.0,726,726,726,726,13K133,K,2.0,K133,P.S. 133 WILLIAM A. BUTLER,Elementary,1.0,13.0,13.0,211 8TH STREET,NY,11215,HEATHER FOSTER-MANN,718-857-4810,718-622-3264,"PK,0K,01,02,03,04,05,SE",BROOKLYN,"211 8TH STREET, NY, 11215","211 8th St, Brooklyn, NY 11215, USA",40.67099410000001,-73.9877319
13K265,Dr. Susan S. McKinney Secondary School of the Arts,SECONDARY SCHOOL,1.0,1.0,0.0,1,0,0.0,0.0,0.0,0,0.0,0.0,301,301,301,301,13K265,K,2.0,K265,DR. SUSAN S. MCKINNEY SECONDARY SCHOOL OF THE ARTS,Secondary School,1.0,13.0,13.0,101 PARK AVENUE,NY,11205,PAULA HOLMES,718-834-6760,718-834-6776,"06,07,08,09,10,11,12,SE",BROOKLYN,"101 PARK AVENUE, NY, 11205","101 Park Ave, Brooklyn, NY 11205, USA",40.6967968,-73.9760706
13K301,Satellite East Middle School,JUNIOR HIGH-INTERMEDIATE-MIDDLE,1.3,1.0,0.3,1,0,0.0,0.3,0.0,0,0.0,0.3,88,70,88,88,13K301,K,2.0,K301,SATELLITE EAST MIDDLE SCHOOL,Junior High-Intermediate-Middle,1.0,13.0,13.0,344 MONROE STREET,NY,11216,KIM MCPHERSON,718-789-4251,718-789-4823,"06,07,08,SE",BROOKLYN,"344 MONROE STREET, NY, 11216","344 Monroe St, Brooklyn, NY 11216, USA",40.6859446,-73.94530329999999
13K313,Dock Street School for STEAM Studies,JUNIOR HIGH-INTERMEDIATE-MIDDLE,2.2,2.0,0.2,2,0,0.0,0.2,0.0,0,0.0,0.2,284,129,142,284,13K313,K,2.0,K313,SATELLITE WEST MIDDLE SCHOOL,Junior High-Intermediate-Middle,1.0,13.0,13.0,209 YORK STREET,NY,11201,SUZANE JOSEPH,718-834-6774,718-834-2979,"06,07,08,SE",BROOKLYN,"209 YORK STREET, NY, 11201","209 York St, Brooklyn, NY 11201, USA",40.701462,-73.98141609999999
13K350,Urban Assembly School of Music and Art,HIGH SCHOOL,1.2,1.0,0.2,1,0,0.0,0.2,0.0,0,0.0,0.2,193,161,193,193,13K350,K,2.0,K350,"URBAN ASSEMBLY SCHOOL OF MUSIC AND ART, THE",High school,1.0,13.0,13.0,49 FLATBUSH AVENUE EXTENSION,NY,11201,PAUL THOMPSON,718-858-0249,718-858-0492,"09,10,11,12,SE",BROOKLYN,"49 FLATBUSH AVENUE EXTENSION, NY, 11201","49 Flatbush Ave Ext, Brooklyn, NY 11201, USA",40.6973489,-73.98474759999999
13K595,Bedford Academy High School,HIGH SCHOOL,2.2,2.0,0.2,2,0,0.0,0.2,0.0,0,0.0,0.2,392,178,196,392,13K595,K,2.0,K595,BEDFORD ACADEMY HIGH SCHOOL,High school,1.0,13.0,13.0,1119 BEDFORD AVENUE,NY,11216,ADOFO MUHAMMAD,718-398-3061,718-636-3819,"09,10,11,12",BROOKLYN,"1119 BEDFORD AVENUE, NY, 11216","1119 Bedford Ave, Brooklyn, NY 11216, USA",40.6855293,-73.9540295
13K616,Brooklyn High School for Leadership and Community,HIGH SCHOOL,1.0,1.0,0.0,1,0,0.0,0.0,0.0,0,0.0,0.0,177,177,177,177,13K616,K,2.0,K616,BROOKLYN HIGH SCHOOL FOR LEADERSHIP AND COMMUNITY,High school,1.0,13.0,13.0,300 WILLOUGHBY AVENUE,NY,11205,GEORGIA KOURIAMPALIS,718-638-3062,718-638-3404,"09,10,11,12,SE",BROOKLYN,"300 WILLOUGHBY AVENUE, NY, 11205","300 Willoughby Ave, Brooklyn, NY 11205, USA",40.6917732,-73.9584849
13K670,Benjamin Banneker Academy,HIGH SCHOOL,4.2,4.0,0.2,4,0,0.0,0.2,0.0,0,0.0,0.2,815,194,204,815,13K670,K,2.0,K670,BENJAMIN BANNEKER ACADEMY,High school,1.0,13.0,13.0,71-77 CLINTON AVENUE,NY,11205,MAJIDA ABDUL KARIM,718-797-3702,718-797-3862,"09,10,11,12,SE",BROOKLYN,"71-77 CLINTON AVENUE, NY, 11205","71 Clinton Ave, Brooklyn, NY 11205, USA",40.6956408,-73.969318
13K674,"City Polytechnic High School of Engineering, Archi",HIGH SCHOOL,4.2,4.0,0.2,4,0,0.0,0.2,0.0,0,0.0,0.2,433,103,108,433,13K674,K,2.0,K674,"CITY POLYTECHNIC HIGH SCHOOL OF ENGINEERING, ARCHI",High school,1.0,13.0,13.0,105 JOHNSON STREET,NY,11201,CHRIS AGUIRRE,718-875-1473,718-875-1947,"09,10,11,SE",BROOKLYN,"105 JOHNSON STREET, NY, 11201","105 Johnson St, Brooklyn, NY 11201, USA",40.6956305,-73.9856714
13K691,Fort Greene Preparatory Academy,JUNIOR HIGH-INTERMEDIATE-MIDDLE,1.2,1.0,0.2,1,0,0.0,0.2,0.0,0,0.0,0.2,209,174,209,209,13K691,K,2.0,K691,FORT GREENE PREPARATORY ACADEMY,Junior High-Intermediate-Middle,1.0,13.0,13.0,100 CLERMONT AVENUE,NY,11205,PAULA LETTIERE,718-254-9401,718-254-9407,"06,SE",BROOKLYN,"100 CLERMONT AVENUE, NY, 11205","100 Clermont Ave, Brooklyn, NY 11205, USA",40.6948636,-73.9717309
13K915,I.S. 915,JUNIOR HIGH-INTERMEDIATE-MIDDLE,1.0,1.0,0.0,1,0,0.0,0.0,0.0,0,0.0,0.0,278,278,278,278,,,,,,,,,,,,,,,,,,"105 TECH PLACE, Brooklyn, 11201","105 Tech Pl, Brooklyn, NY 11201, USA",40.6955452,-73.985323
14K031,P.S. 031 Samuel F. Dupont,ELEMENTARY,0.4,0.4,0.0,0,0,0.4,0.0,0.0,0,0.4,0.0,619,619,619,619,14K031,K,2.0,K031,P.S. 031 SAMUEL F. DUPONT,Elementary,1.0,14.0,14.0,75 MESEROLE AVENUE,NY,11222,Mary J. Scarlato,718-383-8998,718-383-5652,"PK,0K,01,02,03,04,05,SE",BROOKLYN,"75 MESEROLE AVENUE, NY, 11222","75 Meserole Ave, Brooklyn, NY 11222, USA",40.7268745,-73.95412449999999
14K034,P.S. 034 Oliver H. Perry,ELEMENTARY,1.0,1.0,0.0,1,0,0.0,0.0,0.0,0,0.0,0.0,479,479,479,479,14K034,K,2.0,K034,P.S. 034 OLIVER H. PERRY,Elementary,1.0,14.0,14.0,131 NORMAN AVENUE,NY,11222,ALICJA WINNICKI,718-389-5842,718-389-0356,"PK,0K,01,02,03,04,05,SE",BROOKLYN,"131 NORMAN AVENUE, NY, 11222","131 Norman Ave, Brooklyn, NY 11222, USA",40.72641429999999,-73.9498036
14K050,J.H.S. 050 John D. Wells,JUNIOR HIGH-INTERMEDIATE-MIDDLE,1.2,1.0,0.2,1,0,0.0,0.2,0.0,0,0.0,0.2,326,272,326,326,14K050,K,2.0,K050,J.H.S. 050 JOHN D. WELLS,Junior High-Intermediate-Middle,1.0,14.0,14.0,183 SOUTH  3 STREET,NY,11211,DENISE JAMISON,718-387-4184,718-302-2320,"06,07,08,SE",BROOKLYN,"183 SOUTH  3 STREET, NY, 11211","183 S 3rd St, Brooklyn, NY 11211, USA",40.7117745,-73.9596149
14K071,Juan Morel Campos Secondary School,SECONDARY SCHOOL,3.0,3.0,0.0,3,0,0.0,0.0,0.0,0,0.0,0.0,482,161,161,482,14K071,K,2.0,K071,JUAN MOREL CAMPOS SECONDARY SCHOOL,Secondary School,1.0,14.0,14.0,215 HEYWARD STREET,NY,11206,HOWARD FINEMAN,718-302-7900,718-302-7979,"06,07,08,09,10,11,12,SE",BROOKLYN,"215 HEYWARD STREET, NY, 11206","215 Heyward St, Brooklyn, NY 11206, USA",40.7039101,-73.9537081
14K110,P.S. 110 The Monitor,ELEMENTARY,1.0,1.0,0.0,1,0,0.0,0.0,0.0,0,0.0,0.0,594,594,594,594,14K110,K,2.0,K110,P.S. 110 THE MONITOR,Elementary,1.0,14.0,14.0,124 MONITOR STREET,NY,11222,ANNA CANO AMATO,718-383-7600,718-383-5053,"PK,0K,01,02,03,04,05,SE",BROOKLYN,"124 MONITOR STREET, NY, 11222","124 Monitor St, Brooklyn, NY 11222, USA",40.7237601,-73.9419954
14K126,John Ericsson Middle School 126,JUNIOR HIGH-INTERMEDIATE-MIDDLE,2.3,2.0,0.3,2,0,0.0,0.3,0.0,0,0.0,0.3,328,146,164,328,14K126,K,2.0,K126,JOHN ERICSSON MIDDLE SCHOOL 126,Junior High-Intermediate-Middle,1.0,14.0,14.0,424 LEONARD STREET,NY,11222,ROSEMARY OCHOA,718-782-2527,718-302-2319,"06,07,08,SE",BROOKLYN,"424 LEONARD STREET, NY, 11222","424 Leonard St, Brooklyn, NY 11222, USA",40.7197652,-73.9478321
14K147,P.S. 147 Isaac Remsen,ELEMENTARY,1.0,1.0,0.0,1,0,0.0,0.0,0.0,0,0.0,0.0,358,358,358,358,14K147,K,2.0,K147,P.S. 147 ISSAC REMSEN,Elementary,1.0,14.0,14.0,325 BUSHWICK AVENUE,NY,11206,JULIA DRAKE,718-497-0326,718-628-4988,"PK,0K,01,02,03,04,05,SE",BROOKLYN,"325 BUSHWICK AVENUE, NY, 11206","325 Bushwick Ave, Brooklyn, NY 11206, USA",40.7050566,-73.9386916
14K319,P.S. 319,EARLY CHILDHOOD,1.0,1.0,0.0,1,0,0.0,0.0,0.0,0,0.0,0.0,125,125,125,125,14K319,K,2.0,K319,P.S. 319,Early Childhood,1.0,14.0,14.0,360 KEAP STREET,NY,11211,ALEYDA ZAMORA MARTINEZ,718-388-1588,718-302-2316,"PK,0K,01,SE",BROOKLYN,"360 KEAP STREET, NY, 11211","360 Keap St, Brooklyn, NY 11211, USA",40.7097746,-73.9539377
14K449,"Brooklyn Latin School, The",HIGH SCHOOL,6.3,6.0,0.3,6,0,0.0,0.3,2.0,0,0.0,0.3,785,126,131,785,14K449,K,2.0,K449,"BROOKLYN LATIN SCHOOL, THE",High school,1.0,14.0,14.0,325 BUSHWICK AVENUE,NY,11206,JASON GRIFFITHS,718-366-0154,718-381-3012,"09,10,11,12",BROOKLYN,"325 BUSHWICK AVENUE, NY, 11206","325 Bushwick Ave, Brooklyn, NY 11206, USA",40.7050566,-73.9386916
14K454,The Williamsburg High School of Art and Technology,HIGH SCHOOL,2.9,2.0,0.9,2,0,0.0,0.9,0.0,0,0.0,0.9,310,109,155,310,14K454,K,2.0,K454,GREEN SCHOOL: AN ACADEMY FOR ENVIRONMENTAL CAREERS,High school,1.0,14.0,14.0,223 GRAHAM AVENUE,NY,11206,Karali Pitzele,718-599-1207,718-387-7945,"09,10,11,12,SE",BROOKLYN,"223 GRAHAM AVENUE, NY, 11206","223 Graham Ave, Brooklyn, NY 11206, USA",40.709729,-73.9443861
14K477,East Williamsburg Scholars Academy,HIGH SCHOOL,1.3,1.0,0.3,1,0,0.0,0.3,0.0,0,0.0,0.3,291,233,291,291,14K477,K,2.0,K477,SCHOOL FOR LEGAL STUDIES,High school,1.0,14.0,14.0,850 GRAND STREET,NY,11211,MONICA ORTIZ,718-387-2800,718-387-3281,"09,10,11,12,SE",BROOKLYN,"850 GRAND STREET, NY, 11211","Campus High School, 850 Grand St, Brooklyn, NY 11211, USA",40.7119673,-73.94004989999999
14K478,"The High School for Enterprise, Business and Techn",HIGH SCHOOL,3.3,3.0,0.3,3,0,0.0,0.3,2.0,0,0.0,0.3,776,239,259,776,14K478,K,2.0,K478,"ENTERPRISE, BUSINESS AND  TECHNOLOGY HIGH SCHOOL",High school,1.0,14.0,14.0,850 GRAND STREET,NY,11211,Holger Carrillo,718-387-2800,718-387-2748,"09,10,11,12,SE",BROOKLYN,"850 GRAND STREET, NY, 11211","Campus High School, 850 Grand St, Brooklyn, NY 11211, USA",40.7119673,-73.94004989999999
14K561,Williamsburg Preparatory School,HIGH SCHOOL,2.2,2.0,0.2,2,0,0.0,0.2,1.0,0,0.0,0.2,692,315,346,692,14K561,K,2.0,K561,WILLIAMSBURG PREPARATORY SCHOOL,High school,1.0,14.0,14.0,257 NORTH  6 STREET,NY,11211,Michael Shadrick,718-302-2306,718-302-3726,"09,10,11,12,SE",BROOKLYN,"257 NORTH  6 STREET, NY, 11211","257 N 6th St, Brooklyn, NY 11211, USA",40.7154923,-73.9550398
14K582,M.S. 582,JUNIOR HIGH-INTERMEDIATE-MIDDLE,1.2,1.0,0.2,1,0,0.0,0.2,0.0,0,0.0,0.2,329,274,329,329,14K582,K,2.0,K582,M.S. 582,Junior High-Intermediate-Middle,1.0,14.0,14.0,207 BUSHWICK AVENUE,NY,11206,BRIAN WALSH,718-456-8218,718-456-8220,"06,07,08,SE",BROOKLYN,"207 BUSHWICK AVENUE, NY, 11206","207 Bushwick Ave, Brooklyn, NY 11206, USA",40.708637,-73.9394264
14K685,El Puente Academy for Peace and Justice,HIGH SCHOOL,3.2,3.0,0.2,3,0,0.0,0.2,0.0,0,0.0,0.2,226,71,75,226,14K685,K,2.0,K685,EL PUENTE ACADEMY FOR PEACE AND JUSTICE,High school,1.0,14.0,14.0,250 HOOPER STREET,NY,11211,HECTOR CALDERON,718-387-1125,718-387-4229,"09,10,11,12,SE",BROOKLYN,"250 HOOPER STREET, NY, 11211","250 Hooper St, Brooklyn, NY 11211, USA",40.7056121,-73.9555879
15K038,P.S. 038 The Pacific,ELEMENTARY,0.5,0.5,0.0,0,0,0.5,0.0,0.0,0,0.5,0.0,590,590,590,590,15K038,K,2.0,K038,P.S. 038 THE PACIFIC,Elementary,1.0,15.0,15.0,450 PACIFIC STREET,NY,11217,YOLANDA RAMIREZ,718-330-9305,718-802-9542,"PK,0K,01,02,03,04,05,SE",BROOKLYN,"450 PACIFIC STREET, NY, 11217","450 Pacific St, Brooklyn, NY 11217, USA",40.6850381,-73.9829164
15K039,P.S. 039 Henry Bristow,ELEMENTARY,0.6,0.6,0.0,0,0,0.6,0.0,0.0,0,0.0,0.0,417,417,417,417,15K039,K,2.0,K039,P.S. 039 HENRY BRISTOW,Elementary,1.0,15.0,15.0,417 6 AVENUE,NY,11215,ANITA DE PAZ,718-330-9310,718-832-2010,"PK,0K,01,02,03,04,05,SE",BROOKLYN,"417 6 AVENUE, NY, 11215","417 6th Ave, Brooklyn, NY 11215, USA",40.6686933,-73.982957
15K107,P.S. 107 John W. Kimball,ELEMENTARY,0.9,0.9,0.0,0,0,0.9,0.0,0.0,0,0.0,0.0,567,567,567,567,15K107,K,2.0,K107,P.S. 107 JOHN W. KIMBALL,Elementary,1.0,15.0,15.0,1301 8 AVENUE,NY,11215,CYNTHIA HOLTON,718-499-2054,718-965-6479,"PK,0K,01,02,03,04,05,SE",BROOKLYN,"1301 8 AVENUE, NY, 11215","1301 8th Ave, Brooklyn, NY 11215, USA",40.6630214,-73.9811205
15K118,The Maurice Sendak Community School,ELEMENTARY,1.0,1.0,0.0,1,0,0.0,0.0,0.0,0,0.0,0.0,340,340,340,340,,,,,,,,,,,,,,,,,,"211 8TH STREET, Brooklyn, 11215","211 8th St, Brooklyn, NY 11215, USA",40.67099410000001,-73.9877319
15K124,P.S. 124 Silas B. Dutcher,ELEMENTARY,1.0,1.0,0.0,1,0,0.0,0.0,0.0,0,0.0,0.0,282,282,282,282,15K124,K,2.0,K124,P.S. 124 SILAS B. DUTCHER,Elementary,1.0,15.0,15.0,515 4 AVENUE,NY,11215,Annabelle Martinez,718-788-0246,718-965-9558,"PK,0K,01,02,03,04,05,SE",BROOKLYN,"515 4 AVENUE, NY, 11215","515 4th Ave, Brooklyn, NY 11215, USA",40.66748750000001,-73.9906623
15K130,P.S. 130 The Parkside,ELEMENTARY,2.0,2.0,0.0,2,0,0.0,0.0,0.0,0,0.0,0.0,876,438,438,876,15K130,K,2.0,K130,P.S. 130 THE PARKSIDE,Elementary,1.0,15.0,15.0,70 OCEAN PARKWAY,NY,11218,MARIA NUNZIATA,718-686-1940,718-854-9756,"PK,0K,01,02,03,04,05,SE",BROOKLYN,"70 OCEAN PARKWAY, NY, 11218","70 Ocean Pkwy, Brooklyn, NY 11218, USA",40.6489096,-73.9762077
